[{"geoname_id":3577058,"name":"Westpunt","ascii_name":"Westpunt","alternate_names":"Sabana Westpunt,Westpunt","latitude":"12.59517","longitude":"-70.03828","feature_class":"P","feature_code":"PPLX","country_code":"AW","admin1_code":"00","dem":9,"timezone":"America/Aruba","modification_date":"0001-01-01T00:00:00Z"},{"geoname_id":3577059,"name":"Westhaven","ascii_name":"Westhaven","alternate_names":"","latitude":"12.51667","longitude":"-70.05","feature_class":"H","feature_code":"HBR","country_code":"AW","admin1_code":"00","dem":-9999,"timezone":"America/Aruba","modification_date":"0001-01-01T00:00:00Z"},{"geoname_id":3577060,"name":"Wayaca","ascii_name":"Wayaca","alternate_names":"","latitude":"12.50709","longitude":"-70.00471","feature_class":"P","feature_code":"PPLX","country_code":"AW","admin1_code":"00","dem":31,"timezone":"America/Aruba","modification_date":"0001-01-01T00:00:00Z"},{"geoname_id":3577061,"name":"Washington","ascii_name":"Washington","alternate_names":"","latitude":"12.55837","longitude":"-70.03816","feature_class":"P","feature_code":"PPLX","country_code":"AW","admin1_code":"00","dem":11,"timezone":"America/Aruba","modification_date":"0001-01-01T00:00:00Z"},{"geoname_id":3577062,"name":"Wariruri","ascii_name":"Wariruri","alternate_names":"","latitude":"12.5597","longitude":"-69.98746","feature_class":"H","feature_code":"COVE","country_code":"AW","admin1_code":"00","dem":-9999,"timezone":"America/Aruba","modification_date":"0001-01-01T00:00:00Z"},{"geoname_id":3577063,"name":"Warawara","ascii_name":"Warawara","alternate_names":"","latitude":"12.49916","longitude":"-69.96943","feature_class":"T","feature_code":"MT","country_code":"AW","admin1_code":"00","dem":38,"timezone":"America/Aruba","modification_date":"0001-01-01T00:00:00Z"},{"geoname_id":3577064,"name":"Vader Piet","ascii_name":"Vader Piet","alternate_names":"","latitude":"12.47151","longitude":"-69.88945","feature_class":"L","feature_code":"LCTY","country_code":"AW","admin1_code":"00","dem":21,"timezone":"America/Aruba","modification_date":"0001-01-01T00:00:00Z"},{"geoname_id":3577065,"name":"Urirama","ascii_name":"Urirama","alternate_names":"","latitude":"12.59135","longitude":"-70.01671","feature_class":"H","feature_code":"COVE","country_code":"AW","admin1_code":"00","dem":5,"timezone":"America/Aruba","modification_date":"0001-01-01T00:00:00Z"},{"geoname_id":3577066,"name":"Urataca","ascii_name":"Urataca","alternate_names":"Ceru Urataca,Urataca,Urataka","latitude":"12.51005","longitude":"-69.96747","feature_class":"T","feature_code":"HLL","country_code":"AW","admin1_code":"00","dem":74,"timezone":"America/Aruba","modification_date":"0001-01-01T00:00:00Z"},{"geoname_id":3577067,"name":"Turibana","ascii_name":"Turibana","alternate_names":"","latitude":"12.57293","longitude":"-70.02832","feature_class":"T","feature_code":"HLL","country_code":"AW","admin1_code":"00","dem":24,"timezone":"America/Aruba","modification_date":"0001-01-01T00:00:00Z"},{"geoname_id":3577068,"name":"Sero Tres Cabés","ascii_name":"Sero Tres Cabes","alternate_names":"Sero Tres Cabes,Sero Tres Cabés,Seroe Tres Kabees","latitude":"12.59123","longitude":"-70.02548","feature_class":"T","feature_code":"HLL","country_code":"AW","admin1_code":"00","dem":27,"timezone":"America/Aruba","modification_date":"0001-01-01T00:00:00Z"},{"geoname_id":3577069,"name":"Sero Tijshi","ascii_name":"Sero Tijshi","alternate_names":"","latitude":"12.48906","longitude":"-69.98407","feature_class":"T","feature_code":"HLL","country_code":"AW","admin1_code":"00","dem":37,"timezone":"America/Aruba","modification_date":"0001-01-01T00:00:00Z"},{"geoname_id":3577070,"name":"Rooi Thomas","ascii_name":"Rooi Thomas","alternate_names":"","latitude":"12.49381","longitude":"-69.90333","feature_class":"H","feature_code":"STMI","country_code":"AW","admin1_code":"00","dem":6,"timezone":"America/Aruba","modification_date":"0001-01-01T00:00:00Z"},{"geoname_id":3577071,"name":"Tarabana","ascii_name":"Tarabana","alternate_names":"","latitude":"12.52127","longitude":"-70.01985","feature_class":"P","feature_code":"PPLX","country_code":"AW","admin1_code":"00","dem":13,"timezone":"America/Aruba","modification_date":"0001-01-01T00:00:00Z"},{"geoname_id":3577072,"name":"Tanki Leendert","ascii_name":"Tanki Leendert","alternate_names":"Tanki Leendert,Tanki Lender","latitude":"12.53914","longitude":"-70.02004","feature_class":"P","feature_code":"PPL","country_code":"AW","admin1_code":"00","population":21500,"dem":26,"timezone":"America/Aruba","modification_date":"0001-01-01T00:00:00Z"},{"geoname_id":3577073,"name":"Tanki Flip","ascii_name":"Tanki Flip","alternate_names":"Tanki Flip","latitude":"12.54588","longitude":"-70.03067","feature_class":"P","feature_code":"PPLL","country_code":"AW","admin1_code":"00","dem":16,"timezone":"America/Aruba","modification_date":"0001-01-01T00:00:00Z"},{"geoname_id":3577074,"name":"Rooi Tambú","ascii_name":"Rooi Tambu","alternate_names":"","latitude":"12.50463","longitude":"-69.92021","feature_class":"H","feature_code":"STMI","country_code":"AW","admin1_code":"00","dem":11,"timezone":"America/Aruba","modification_date":"0001-01-01T00:00:00Z"},{"geoname_id":3577075,"name":"Tamarijn","ascii_name":"Tamarijn","alternate_names":"Tamarijn","latitude":"12.53591","longitude":"-69.98757","feature_class":"P","feature_code":"PPLX","country_code":"AW","admin1_code":"00","dem":37,"timezone":"America/Aruba","modification_date":"0001-01-01T00:00:00Z"},{"geoname_id":3577076,"name":"Rooi Taki","ascii_name":"Rooi Taki","alternate_names":"","latitude":"12.47988","longitude":"-69.97001","feature_class":"H","feature_code":"STMI","country_code":"AW","admin1_code":"00","dem":14,"timezone":"America/Aruba","modification_date":"0001-01-01T00:00:00Z"},{"geoname_id":3577077,"name":"Supladó","ascii_name":"Suplado","alternate_names":"","latitude":"12.51065","longitude":"-69.92011","feature_class":"H","feature_code":"COVE","country_code":"AW","admin1_code":"00","dem":-9999,"timezone":"America/Aruba","modification_date":"0001-01-01T00:00:00Z"},{"geoname_id":3577078,"name":"Sero Sumpiña","ascii_name":"Sero Sumpina","alternate_names":"","latitude":"12.55621","longitude":"-69.99733","feature_class":"T","feature_code":"HLL","country_code":"AW","admin1_code":"00","dem":64,"timezone":"America/Aruba","modification_date":"0001-01-01T00:00:00Z"},{"geoname_id":3577079,"name":"Sumpiña","ascii_name":"Sumpina","alternate_names":"","latitude":"12.53428","longitude":"-69.96859","feature_class":"T","feature_code":"HLL","country_code":"AW","admin1_code":"00","dem":80,"timezone":"America/Aruba","modification_date":"0001-01-01T00:00:00Z"},{"geoname_id":3577080,"name":"Rooi Spoki","ascii_name":"Rooi Spoki","alternate_names":"","latitude":"12.44154","longitude":"-69.90339","feature_class":"H","feature_code":"STMI","country_code":"AW","admin1_code":"00","dem":29,"timezone":"America/Aruba","modification_date":"0001-01-01T00:00:00Z"},{"geoname_id":3577081,"name":"Spaans Lagoen","ascii_name":"Spaans Lagoen","alternate_names":"Spaans Lagoen,Spaansch Lagoen,Spanish Lagoon","latitude":"12.4691","longitude":"-69.98016","feature_class":"H","feature_code":"LGN","country_code":"AW","cc2":"AW","admin1_code":"00","dem":12,"timezone":"America/Aruba","modification_date":"0001-01-01T00:00:00Z"},{"geoname_id":3577083,"name":"Solito","ascii_name":"Solito","alternate_names":"Solito,Solitu","latitude":"12.53078","longitude":"-70.02732","feature_class":"P","feature_code":"PPLX","country_code":"AW","admin1_code":"00","dem":17,"timezone":"America/Aruba","modification_date":"0001-01-01T00:00:00Z"},{"geoname_id":3577084,"name":"Soledad","ascii_name":"Soledad","alternate_names":"","latitude":"12.54772","longitude":"-70.01495","feature_class":"P","feature_code":"PPLX","country_code":"AW","admin1_code":"00","dem":29,"timezone":"America/Aruba","modification_date":"0001-01-01T00:00:00Z"},{"geoname_id":3577085,"name":"Smal","ascii_name":"Smal","alternate_names":"","latitude":"12.43333","longitude":"-69.95","feature_class":"H","feature_code":"RF","country_code":"AW","admin1_code":"00","dem":-9999,"timezone":"America/Aruba","modification_date":"0001-01-01T00:00:00Z"},{"geoname_id":3577086,"name":"Siribana","ascii_name":"Siribana","alternate_names":"","latitude":"12.51817","longitude":"-69.97938","feature_class":"P","feature_code":"PPLX","country_code":"AW","admin1_code":"00","dem":35,"timezone":"America/Aruba","modification_date":"0001-01-01T00:00:00Z"},{"geoname_id":3577087,"name":"Sint Nicolaashaven","ascii_name":"Sint Nicolaashaven","alternate_names":"","latitude":"12.43333","longitude":"-69.9","feature_class":"H","feature_code":"HBR","country_code":"AW","admin1_code":"00","dem":18,"timezone":"America/Aruba","modification_date":"0001-01-01T00:00:00Z"},{"geoname_id":3577088,"name":"Sint Nicolaasbaai","ascii_name":"Sint Nicolaasbaai","alternate_names":"","latitude":"12.41768","longitude":"-69.89532","feature_class":"H","feature_code":"BAY","country_code":"AW","admin1_code":"00","dem":1,"timezone":"America/Aruba","modification_date":"0001-01-01T00:00:00Z"},{"geoname_id":3577089,"name":"San Nicolas","ascii_name":"San Nicolas","alternate_names":"San Nicolas,Sint Nicolaas","latitude":"12.43624","longitude":"-69.90713","feature_class":"P","feature_code":"PPL","country_code":"AW","admin1_code":"00","population":15200,"dem":14,"timezone":"America/Aruba","modification_date":"0001-01-01T00:00:00Z"},{"geoname_id":3577090,"name":"Sint Anna","ascii_name":"Sint Anna","alternate_names":"Santa Anna,Sint Anna","latitude":"12.56667","longitude":"-70.03333","feature_class":"P","feature_code":"PPL","country_code":"AW","admin1_code":"00","dem":7,"timezone":"America/Aruba","modification_date":"0001-01-01T00:00:00Z"},{"geoname_id":3577091,"name":"Simeon Antonio","ascii_name":"Simeon Antonio","alternate_names":"","latitude":"12.49404","longitude":"-70.0096","feature_class":"P","feature_code":"PPLX","country_code":"AW","admin1_code":"00","dem":6,"timezone":"America/Aruba","modification_date":"0001-01-01T00:00:00Z"},{"geoname_id":3577092,"name":"Shiribana","ascii_name":"Shiribana","alternate_names":"Shiribana","latitude":"12.53717","longitude":"-70.01119","feature_class":"P","feature_code":"PPLX","country_code":"AW","admin1_code":"00","dem":36,"timezone":"America/Aruba","modification_date":"0001-01-01T00:00:00Z"},{"geoname_id":3577093,"name":"Shete","ascii_name":"Shete","alternate_names":"Shete,Shette","latitude":"12.51158","longitude":"-69.9498","feature_class":"P","feature_code":"PPLX","country_code":"AW","admin1_code":"00","dem":76,"timezone":"America/Aruba","modification_date":"0001-01-01T00:00:00Z"},{"geoname_id":3577094,"name":"Shabiruri","ascii_name":"Shabiruri","alternate_names":"Shabiruri,Shaburi","latitude":"12.52303","longitude":"-69.97159","feature_class":"P","feature_code":"PPLX","country_code":"AW","admin1_code":"00","dem":57,"timezone":"America/Aruba","modification_date":"0001-01-01T00:00:00Z"},{"geoname_id":3577095,"name":"Shaba","ascii_name":"Shaba","alternate_names":"","latitude":"12.55268","longitude":"-70.02972","feature_class":"P","feature_code":"PPLX","country_code":"AW","admin1_code":"00","dem":19,"timezone":"America/Aruba","modification_date":"0001-01-01T00:00:00Z"},{"geoname_id":3577096,"name":"Sero Colorado","ascii_name":"Sero Colorado","alternate_names":"Ceru Colorado,Sero Colorado,Seroe Colorado","latitude":"12.41881","longitude":"-69.8821","feature_class":"P","feature_code":"PPL","country_code":"AW","admin1_code":"00","dem":19,"timezone":"America/Aruba","modification_date":"0001-01-01T00:00:00Z"},{"geoname_id":3577097,"name":"Sero Blanco","ascii_name":"Sero Blanco","alternate_names":"Sero Blanco,Seroe Blanco","latitude":"12.52688","longitude":"-70.02273","feature_class":"P","feature_code":"PPLX","country_code":"AW","admin1_code":"00","dem":20,"timezone":"America/Aruba","modification_date":"0001-01-01T00:00:00Z"},{"geoname_id":3577098,"name":"Rooi Santo","ascii_name":"Rooi Santo","alternate_names":"","latitude":"12.58488","longitude":"-70.04191","feature_class":"H","feature_code":"STMI","country_code":"AW","admin1_code":"00","dem":5,"timezone":"America/Aruba","modification_date":"0001-01-01T00:00:00Z"},{"geoname_id":3577099,"name":"Santa Martha","ascii_name":"Santa Martha","alternate_names":"","latitude":"12.50341","longitude":"-69.99187","feature_class":"P","feature_code":"PPLX","country_code":"AW","admin1_code":"00","dem":34,"timezone":"America/Aruba","modification_date":"0001-01-01T00:00:00Z"},{"geoname_id":3577100,"name":"Santa Lucia","ascii_name":"Santa Lucia","alternate_names":"","latitude":"12.52976","longitude":"-69.96037","feature_class":"T","feature_code":"HLL","country_code":"AW","admin1_code":"00","dem":76,"timezone":"America/Aruba","modification_date":"0001-01-01T00:00:00Z"},{"geoname_id":3577101,"name":"Santa Helena","ascii_name":"Santa Helena","alternate_names":"","latitude":"12.53089","longitude":"-70.0365","feature_class":"P","feature_code":"PPLX","country_code":"AW","admin1_code":"00","dem":5,"timezone":"America/Aruba","modification_date":"0001-01-01T00:00:00Z"},{"geoname_id":3577102,"name":"Santa Cruz","ascii_name":"Santa Cruz","alternate_names":"Santa Cruz","latitude":"12.50953","longitude":"-69.98094","feature_class":"P","feature_code":"PPL","country_code":"AW","admin1_code":"00","population":12900,"dem":34,"timezone":"America/Aruba","modification_date":"0001-01-01T00:00:00Z"},{"geoname_id":3577103,"name":"San Fuego","ascii_name":"San Fuego","alternate_names":"","latitude":"12.50127","longitude":"-69.95557","feature_class":"P","feature_code":"PPLX","country_code":"AW","admin1_code":"00","dem":49,"timezone":"America/Aruba","modification_date":"0001-01-01T00:00:00Z"},{"geoname_id":3577104,"name":"San Barbola","ascii_name":"San Barbola","alternate_names":"","latitude":"12.52554","longitude":"-70.0156","feature_class":"P","feature_code":"PPLX","country_code":"AW","admin1_code":"00","dem":18,"timezone":"America/Aruba","modification_date":"0001-01-01T00:00:00Z"},{"geoname_id":3577105,"name":"Saliña Cerca","ascii_name":"Salina Cerca","alternate_names":"","latitude":"12.57938","longitude":"-70.03707","feature_class":"P","feature_code":"PPLX","country_code":"AW","admin1_code":"00","dem":8,"timezone":"America/Aruba","modification_date":"0001-01-01T00:00:00Z"},{"geoname_id":3577106,"name":"Sabanía Abao","ascii_name":"Sabania Abao","alternate_names":"Sabana Abao,Sabania Abao,Sabanía Abao","latitude":"12.5224","longitude":"-69.95929","feature_class":"P","feature_code":"PPLX","country_code":"AW","admin1_code":"00","dem":67,"timezone":"America/Aruba","modification_date":"0001-01-01T00:00:00Z"},{"geoname_id":3577107,"name":"Savaneta","ascii_name":"Savaneta","alternate_names":"Sabaneta,Savaneta,Savonet,Savoneta","latitude":"12.45026","longitude":"-69.93811","feature_class":"P","feature_code":"PPL","country_code":"AW","admin1_code":"00","population":11500,"dem":13,"timezone":"America/Aruba","modification_date":"0001-01-01T00:00:00Z"},{"geoname_id":3577108,"name":"Sabana Liber","ascii_name":"Sabana Liber","alternate_names":"","latitude":"12.5625","longitude":"-70.02186","feature_class":"P","feature_code":"PPLX","country_code":"AW","admin1_code":"00","dem":18,"timezone":"America/Aruba","modification_date":"0001-01-01T00:00:00Z"},{"geoname_id":3577109,"name":"Tanki Sabana Grandi","ascii_name":"Tanki Sabana Grandi","alternate_names":"","latitude":"12.49795","longitude":"-69.98508","feature_class":"H","feature_code":"WTRH","country_code":"AW","admin1_code":"00","dem":26,"timezone":"America/Aruba","modification_date":"0001-01-01T00:00:00Z"},{"geoname_id":3577110,"name":"Sabana Grandi","ascii_name":"Sabana Grandi","alternate_names":"","latitude":"12.49784","longitude":"-69.98198","feature_class":"P","feature_code":"PPLX","country_code":"AW","admin1_code":"00","dem":36,"timezone":"America/Aruba","modification_date":"0001-01-01T00:00:00Z"},{"geoname_id":3577111,"name":"Sabana Blanco","ascii_name":"Sabana Blanco","alternate_names":"Sabana,Sabana Blanco,Sabana Blancoe","latitude":"12.50879","longitude":"-70.01253","feature_class":"P","feature_code":"PPLX","country_code":"AW","admin1_code":"00","dem":19,"timezone":"America/Aruba","modification_date":"0001-01-01T00:00:00Z"},{"geoname_id":3577112,"name":"Sabana Berde","ascii_name":"Sabana Berde","alternate_names":"","latitude":"12.50689","longitude":"-70.01659","feature_class":"P","feature_code":"PPLX","country_code":"AW","admin1_code":"00","dem":13,"timezone":"America/Aruba","modification_date":"0001-01-01T00:00:00Z"},{"geoname_id":3577113,"name":"Sabana Basora","ascii_name":"Sabana Basora","alternate_names":"","latitude":"12.47216","longitude":"-69.96225","feature_class":"P","feature_code":"PPLX","country_code":"AW","admin1_code":"00","dem":26,"timezone":"America/Aruba","modification_date":"0001-01-01T00:00:00Z"},{"geoname_id":3577114,"name":"Rooi Prikichi","ascii_name":"Rooi Prikichi","alternate_names":"Rooi Prikichi","latitude":"12.54048","longitude":"-69.98026","feature_class":"P","feature_code":"PPLX","country_code":"AW","admin1_code":"00","dem":28,"timezone":"America/Aruba","modification_date":"0001-01-01T00:00:00Z"},{"geoname_id":3577115,"name":"Rooi Master","ascii_name":"Rooi Master","alternate_names":"","latitude":"12.45017","longitude":"-69.92338","feature_class":"P","feature_code":"PPLX","country_code":"AW","admin1_code":"00","dem":19,"timezone":"America/Aruba","modification_date":"0001-01-01T00:00:00Z"},{"geoname_id":3577116,"name":"Rooi Hundo","ascii_name":"Rooi Hundo","alternate_names":"","latitude":"12.44316","longitude":"-69.89683","feature_class":"P","feature_code":"PPLX","country_code":"AW","admin1_code":"00","dem":50,"timezone":"America/Aruba","modification_date":"0001-01-01T00:00:00Z"},{"geoname_id":3577117,"name":"Rooi Congo","ascii_name":"Rooi Congo","alternate_names":"","latitude":"12.44734","longitude":"-69.91512","feature_class":"P","feature_code":"PPLX","country_code":"AW","admin1_code":"00","dem":30,"timezone":"America/Aruba","modification_date":"0001-01-01T00:00:00Z"},{"geoname_id":3577118,"name":"Rooi Cochi","ascii_name":"Rooi Cochi","alternate_names":"","latitude":"12.45363","longitude":"-69.93382","feature_class":"P","feature_code":"PPLX","country_code":"AW","admin1_code":"00","dem":29,"timezone":"America/Aruba","modification_date":"0001-01-01T00:00:00Z"},{"geoname_id":3577119,"name":"Rooi Bosal","ascii_name":"Rooi Bosal","alternate_names":"","latitude":"12.49198","longitude":"-69.97821","feature_class":"P","feature_code":"PPLX","country_code":"AW","admin1_code":"00","dem":24,"timezone":"America/Aruba","modification_date":"0001-01-01T00:00:00Z"},{"geoname_id":3577120,"name":"Rooi Afó","ascii_name":"Rooi Afo","alternate_names":"Rooi Afo,Rooi Afó","latitude":"12.52622","longitude":"-70.00969","feature_class":"P","feature_code":"PPLX","country_code":"AW","admin1_code":"00","dem":20,"timezone":"America/Aruba","modification_date":"0001-01-01T00:00:00Z"},{"geoname_id":3577121,"name":"Roncadó","ascii_name":"Roncado","alternate_names":"Roncado,Roncadó","latitude":"12.53804","longitude":"-70.0058","feature_class":"P","feature_code":"PPLX","country_code":"AW","admin1_code":"00","dem":39,"timezone":"America/Aruba","modification_date":"0001-01-01T00:00:00Z"},{"geoname_id":3577122,"name":"Seco di Rogans","ascii_name":"Seco di Rogans","alternate_names":"","latitude":"12.58507","longitude":"-70.04607","feature_class":"H","feature_code":"COVE","country_code":"AW","admin1_code":"00","dem":1,"timezone":"America/Aruba","modification_date":"0001-01-01T00:00:00Z"},{"geoname_id":3577123,"name":"Rodgers Beach","ascii_name":"Rodgers Beach","alternate_names":"","latitude":"12.41719","longitude":"-69.88413","feature_class":"T","feature_code":"BCH","country_code":"AW","admin1_code":"00","dem":2,"timezone":"America/Aruba","modification_date":"0001-01-01T00:00:00Z"},{"geoname_id":3577124,"name":"Rincon","ascii_name":"Rincon","alternate_names":"","latitude":"12.46388","longitude":"-69.88168","feature_class":"H","feature_code":"COVE","country_code":"AW","admin1_code":"00","dem":3,"timezone":"America/Aruba","modification_date":"0001-01-01T00:00:00Z"},{"geoname_id":3577125,"name":"Tanki Real","ascii_name":"Tanki Real","alternate_names":"","latitude":"12.56523","longitude":"-70.03442","feature_class":"H","feature_code":"WTRH","country_code":"AW","admin1_code":"00","dem":9,"timezone":"America/Aruba","modification_date":"0001-01-01T00:00:00Z"},{"geoname_id":3577126,"name":"Queen Beatrix International Airport","ascii_name":"Queen Beatrix International Airport","alternate_names":"AUA,Aeroport Internacional Reina Beatrix,Aeroport international Reine-Beatrix,Aeroporto Internacional Rainha Beatriz,Aeroporto Internazionale Regina Beatrice,Aeropuerto Internacional Reina Beatrix,Aeropuerto Internacional Reina Beatriz,Aruba Airport,Aéroport international Reine-Beatrix,Bandar Udara Internasional Ratu Beatrix,Dronning Beatrix internasjonale lufthamn,Flughafen Queen Beatrix International,Internationale luchthaven Koningin Beatrix,Lapangan Terbang Antarabangsa Oranjestad,Mezhdunarodnyj aehroport imeni korolevy Beatriks,Prinses Beatrix Luchthaven,Queen Beatrix International Airport,San bay quoc te Queen Beatrix,Sân bay quốc tế Queen Beatrix,TNCA,bei ya te li ke si nu wang guo ji ji chang,frwdgah byn‌almlly kwyyn byatryks,kuin・beatorikusu guo ji kong gang,Международный аэропорт имени королевы Беатрикс,فرودگاه بین‌المللی کویین بیاتریکس,クィーン・ベアトリクス国際空港,貝婭特麗克絲女王國際機場","latitude":"12.50385","longitude":"-70.0078","feature_class":"S","feature_code":"AIRP","country_code":"AW","admin1_code":"00","elevation":18,"dem":26,"timezone":"America/Aruba","modification_date":"0001-01-01T00:00:00Z"},{"geoname_id":3577127,"name":"Rooi Prins","ascii_name":"Rooi Prins","alternate_names":"","latitude":"12.49564","longitude":"-69.90907","feature_class":"H","feature_code":"STMI","country_code":"AW","admin1_code":"00","dem":12,"timezone":"America/Aruba","modification_date":"0001-01-01T00:00:00Z"},{"geoname_id":3577128,"name":"Boca Prins","ascii_name":"Boca Prins","alternate_names":"","latitude":"12.4987","longitude":"-69.90702","feature_class":"H","feature_code":"COVE","country_code":"AW","admin1_code":"00","dem":1,"timezone":"America/Aruba","modification_date":"0001-01-01T00:00:00Z"},{"geoname_id":3577129,"name":"Primavera","ascii_name":"Primavera","alternate_names":"","latitude":"12.51277","longitude":"-70.00763","feature_class":"P","feature_code":"PPLX","country_code":"AW","admin1_code":"00","dem":26,"timezone":"America/Aruba","modification_date":"0001-01-01T00:00:00Z"},{"geoname_id":3577130,"name":"Rooi Prikichi","ascii_name":"Rooi Prikichi","alternate_names":"","latitude":"12.54531","longitude":"-69.98188","feature_class":"H","feature_code":"STMI","country_code":"AW","admin1_code":"00","dem":12,"timezone":"America/Aruba","modification_date":"0001-01-01T00:00:00Z"},{"geoname_id":3577131,"name":"Sero Preto","ascii_name":"Sero Preto","alternate_names":"","latitude":"12.52701","longitude":"-70.00239","feature_class":"T","feature_code":"HLL","country_code":"AW","admin1_code":"00","dem":37,"timezone":"America/Aruba","modification_date":"0001-01-01T00:00:00Z"},{"geoname_id":3577132,"name":"Sero Preto","ascii_name":"Sero Preto","alternate_names":"Ceru Pretu,Sero Preto","latitude":"12.45066","longitude":"-69.90785","feature_class":"T","feature_code":"HLL","country_code":"AW","admin1_code":"00","dem":58,"timezone":"America/Aruba","modification_date":"0001-01-01T00:00:00Z"},{"geoname_id":3577133,"name":"Ser’i Pos di Noord","ascii_name":"Ser'i Pos di Noord","alternate_names":"","latitude":"12.56682","longitude":"-70.0024","feature_class":"T","feature_code":"HLL","country_code":"AW","admin1_code":"00","dem":51,"timezone":"America/Aruba","modification_date":"0001-01-01T00:00:00Z"},{"geoname_id":3577134,"name":"Boca di Pos di Noord","ascii_name":"Boca di Pos di Noord","alternate_names":"Boca di Pos de Noord,Boca di Pos di Noord,Boca di Pos di Nord","latitude":"12.574","longitude":"-70.00208","feature_class":"H","feature_code":"COVE","country_code":"AW","admin1_code":"00","dem":2,"timezone":"America/Aruba","modification_date":"0001-01-01T00:00:00Z"},{"geoname_id":3577135,"name":"Pos Chikitu","ascii_name":"Pos Chikitu","alternate_names":"Poos Chikitoe,Pos Chikito,Pos Chikitu","latitude":"12.56667","longitude":"-70.06667","feature_class":"T","feature_code":"PT","country_code":"AW","cc2":"AW","admin1_code":"00","dem":-9999,"timezone":"America/Aruba","modification_date":"0001-01-01T00:00:00Z"},{"geoname_id":3577136,"name":"Pos Chiquito","ascii_name":"Pos Chiquito","alternate_names":"Pos Chikito,Pos Chikitu,Pos Chiquito","latitude":"12.46497","longitude":"-69.96233","feature_class":"P","feature_code":"PPL","country_code":"AW","admin1_code":"00","dem":8,"timezone":"America/Aruba","modification_date":"0001-01-01T00:00:00Z"},{"geoname_id":3577137,"name":"Pos Abao","ascii_name":"Pos Abao","alternate_names":"Pos Abao","latitude":"12.54425","longitude":"-70.04898","feature_class":"P","feature_code":"PPLX","country_code":"AW","admin1_code":"00","dem":8,"timezone":"America/Aruba","modification_date":"0001-01-01T00:00:00Z"},{"geoname_id":3577138,"name":"Ponton","ascii_name":"Ponton","alternate_names":"","latitude":"12.53555","longitude":"-70.03168","feature_class":"P","feature_code":"PPLX","country_code":"AW","admin1_code":"00","dem":30,"timezone":"America/Aruba","modification_date":"0001-01-01T00:00:00Z"},{"geoname_id":3577139,"name":"Sero Plat","ascii_name":"Sero Plat","alternate_names":"Ceru Plat,Sero Plat,Seroe Plat","latitude":"12.54928","longitude":"-69.99376","feature_class":"T","feature_code":"HLL","country_code":"AW","admin1_code":"00","dem":73,"timezone":"America/Aruba","modification_date":"0001-01-01T00:00:00Z"},{"geoname_id":3577140,"name":"Plantersrust","ascii_name":"Plantersrust","alternate_names":"Plantersrust","latitude":"12.51141","longitude":"-70.00128","feature_class":"P","feature_code":"PPLX","country_code":"AW","admin1_code":"00","dem":24,"timezone":"America/Aruba","modification_date":"0001-01-01T00:00:00Z"},{"geoname_id":3577141,"name":"Sero Pita","ascii_name":"Sero Pita","alternate_names":"","latitude":"12.52799","longitude":"-69.98236","feature_class":"T","feature_code":"HLL","country_code":"AW","admin1_code":"00","dem":60,"timezone":"America/Aruba","modification_date":"0001-01-01T00:00:00Z"},{"geoname_id":3577142,"name":"Piedra Plat","ascii_name":"Piedra Plat","alternate_names":"Piedra Plat","latitude":"12.52539","longitude":"-69.99194","feature_class":"P","feature_code":"PPLX","country_code":"AW","admin1_code":"00","dem":41,"timezone":"America/Aruba","modification_date":"0001-01-01T00:00:00Z"},{"geoname_id":3577143,"name":"Piedra Cachó","ascii_name":"Piedra Cacho","alternate_names":"","latitude":"12.50046","longitude":"-69.94125","feature_class":"T","feature_code":"HLL","country_code":"AW","admin1_code":"00","dem":131,"timezone":"America/Aruba","modification_date":"0001-01-01T00:00:00Z"},{"geoname_id":3577144,"name":"Picaron","ascii_name":"Picaron","alternate_names":"","latitude":"12.50242","longitude":"-69.96","feature_class":"P","feature_code":"PPLX","country_code":"AW","admin1_code":"00","dem":45,"timezone":"America/Aruba","modification_date":"0001-01-01T00:00:00Z"},{"geoname_id":3577145,"name":"Pavía","ascii_name":"Pavia","alternate_names":"","latitude":"12.52167","longitude":"-70.00097","feature_class":"P","feature_code":"PPLX","country_code":"AW","admin1_code":"00","dem":32,"timezone":"America/Aruba","modification_date":"0001-01-01T00:00:00Z"},{"geoname_id":3577146,"name":"Sero Patrishi","ascii_name":"Sero Patrishi","alternate_names":"","latitude":"12.53218","longitude":"-70.02171","feature_class":"T","feature_code":"HLL","country_code":"AW","admin1_code":"00","dem":29,"timezone":"America/Aruba","modification_date":"0001-01-01T00:00:00Z"},{"geoname_id":3577147,"name":"Parkieten Bos","ascii_name":"Parkieten Bos","alternate_names":"Parkieten Bos,Parkietenbos","latitude":"12.48734","longitude":"-70.00064","feature_class":"P","feature_code":"PPLX","country_code":"AW","admin1_code":"00","dem":8,"timezone":"America/Aruba","modification_date":"0001-01-01T00:00:00Z"},{"geoname_id":3577148,"name":"Paraguaná","ascii_name":"Paraguana","alternate_names":"","latitude":"12.54765","longitude":"-70.0196","feature_class":"P","feature_code":"PPLX","country_code":"AW","admin1_code":"00","dem":23,"timezone":"America/Aruba","modification_date":"0001-01-01T00:00:00Z"},{"geoname_id":3577149,"name":"Paradijs","ascii_name":"Paradijs","alternate_names":"","latitude":"12.53932","longitude":"-70.0495","feature_class":"P","feature_code":"PPLX","country_code":"AW","admin1_code":"00","dem":8,"timezone":"America/Aruba","modification_date":"0001-01-01T00:00:00Z"},{"geoname_id":3577150,"name":"Paradera","ascii_name":"Paradera","alternate_names":"Paradera","latitude":"12.5351","longitude":"-70.00688","feature_class":"P","feature_code":"PPL","country_code":"AW","admin1_code":"00","population":12000,"dem":42,"timezone":"America/Aruba","modification_date":"0001-01-01T00:00:00Z"},{"geoname_id":3577151,"name":"Palo Marga","ascii_name":"Palo Marga","alternate_names":"Palo Marga,Paloe Marca,Palu Marga","latitude":"12.46209","longitude":"-69.9093","feature_class":"T","feature_code":"HLL","country_code":"AW","admin1_code":"00","dem":81,"timezone":"America/Aruba","modification_date":"0001-01-01T00:00:00Z"},{"geoname_id":3577152,"name":"Palm Beach","ascii_name":"Palm Beach","alternate_names":"Palm Beach (Aruba)","latitude":"12.56847","longitude":"-70.03887","feature_class":"P","feature_code":"PPLX","country_code":"AW","admin1_code":"00","dem":8,"timezone":"America/Aruba","modification_date":"0001-01-01T00:00:00Z"},{"geoname_id":3577153,"name":"Paardenbaai","ascii_name":"Paardenbaai","alternate_names":"","latitude":"12.51543","longitude":"-70.03909","feature_class":"H","feature_code":"BAY","country_code":"AW","admin1_code":"00","dem":-9999,"timezone":"America/Aruba","modification_date":"0001-01-01T00:00:00Z"},{"geoname_id":3577154,"name":"Oranjestad","ascii_name":"Oranjestad","alternate_names":"Aran'estad,Oran'estad,Oranestad,Oraniestat,Oranjestad,Oranjestad pa Aruba,Oranjestad på Aruba,Oranjestadas,Oranjestade,Oranjestado,Oranjested,Oranjestêd,ao la nie si ta de,awrnjstad,olanyeseutateu,oraniesutaddo,oraniyecuttatu,oranjestada,xo ran yes tad,Οράνιεστατ,Араньестад,Оранестад,Ораньестад,Ораньєстад,Орањестад,אורנייסטאד,أورنجستاد,اورنجستاد,اورنجسٹیڈ، اروبا,ओरांजेश्टाड,ஒரானியெசுத்தாடு,โอรันเยสตัด,ორანესტადი,オラニエスタッド,奥拉涅斯塔德,오라녜스타트","latitude":"12.52398","longitude":"-70.02703","feature_class":"P","feature_code":"PPLC","country_code":"AW","admin1_code":"00","population":29998,"elevation":5,"dem":22,"timezone":"America/Aruba","modification_date":"0001-01-01T00:00:00Z"},{"geoname_id":3577155,"name":"Oosthaven","ascii_name":"Oosthaven","alternate_names":"Oosthaven","latitude":"12.51667","longitude":"-70.05","feature_class":"L","feature_code":"PRT","country_code":"AW","admin1_code":"00","dem":-9999,"timezone":"America/Aruba","modification_date":"0001-01-01T00:00:00Z"},{"geoname_id":3577156,"name":"Nuñe","ascii_name":"Nune","alternate_names":"","latitude":"12.53889","longitude":"-70.00796","feature_class":"P","feature_code":"PPLX","country_code":"AW","admin1_code":"00","dem":37,"timezone":"America/Aruba","modification_date":"0001-01-01T00:00:00Z"},{"geoname_id":3577157,"name":"Noordkaap","ascii_name":"Noordkaap","alternate_names":"Noordkaap,Nord-kaap","latitude":"12.53973","longitude":"-69.9474","feature_class":"T","feature_code":"CAPE","country_code":"AW","admin1_code":"00","dem":8,"timezone":"America/Aruba","modification_date":"0001-01-01T00:00:00Z"},{"geoname_id":3577158,"name":"Noord Cura Cabai","ascii_name":"Noord Cura Cabai","alternate_names":"Noord Cura Cabai","latitude":"12.45064","longitude":"-69.93259","feature_class":"P","feature_code":"PPLX","country_code":"AW","admin1_code":"00","dem":23,"timezone":"America/Aruba","modification_date":"0001-01-01T00:00:00Z"},{"geoname_id":3577159,"name":"Noord","ascii_name":"Noord","alternate_names":"Noord","latitude":"12.56596","longitude":"-70.03198","feature_class":"P","feature_code":"PPL","country_code":"AW","admin1_code":"00","dem":11,"timezone":"America/Aruba","modification_date":"0001-01-01T00:00:00Z"},{"geoname_id":3577160,"name":"Nanki","ascii_name":"Nanki","alternate_names":"","latitude":"12.42044","longitude":"-69.8878","feature_class":"H","feature_code":"COVE","country_code":"AW","admin1_code":"00","dem":7,"timezone":"America/Aruba","modification_date":"0001-01-01T00:00:00Z"},{"geoname_id":3577161,"name":"Morgenster","ascii_name":"Morgenster","alternate_names":"Morgenster","latitude":"12.51689","longitude":"-70.00495","feature_class":"P","feature_code":"PPLX","country_code":"AW","admin1_code":"00","dem":27,"timezone":"America/Aruba","modification_date":"0001-01-01T00:00:00Z"},{"geoname_id":3577162,"name":"Mon Pos","ascii_name":"Mon Pos","alternate_names":"Mon Pos","latitude":"12.52361","longitude":"-69.96889","feature_class":"P","feature_code":"PPLX","country_code":"AW","admin1_code":"00","dem":54,"timezone":"America/Aruba","modification_date":"0001-01-01T00:00:00Z"},{"geoname_id":3577163,"name":"Modansa","ascii_name":"Modansa","alternate_names":"Modansa","latitude":"12.53291","longitude":"-70.01436","feature_class":"P","feature_code":"PPLX","country_code":"AW","admin1_code":"00","dem":23,"timezone":"America/Aruba","modification_date":"0001-01-01T00:00:00Z"},{"geoname_id":3577164,"name":"Moco","ascii_name":"Moco","alternate_names":"Moco,Moko","latitude":"12.55134","longitude":"-70.00843","feature_class":"P","feature_code":"PPLX","country_code":"AW","admin1_code":"00","dem":34,"timezone":"America/Aruba","modification_date":"0001-01-01T00:00:00Z"},{"geoname_id":3577165,"name":"Mira Lamá","ascii_name":"Mira Lama","alternate_names":"","latitude":"12.49554","longitude":"-69.94265","feature_class":"L","feature_code":"LCTY","country_code":"AW","admin1_code":"00","dem":109,"timezone":"America/Aruba","modification_date":"0001-01-01T00:00:00Z"},{"geoname_id":3577166,"name":"Meiveld","ascii_name":"Meiveld","alternate_names":"","latitude":"12.52135","longitude":"-70.00819","feature_class":"P","feature_code":"PPLX","country_code":"AW","admin1_code":"00","dem":23,"timezone":"America/Aruba","modification_date":"0001-01-01T00:00:00Z"},{"geoname_id":3577167,"name":"Matividiri","ascii_name":"Matividiri","alternate_names":"","latitude":"12.54191","longitude":"-69.9667","feature_class":"T","feature_code":"HLL","country_code":"AW","admin1_code":"00","dem":111,"timezone":"America/Aruba","modification_date":"0001-01-01T00:00:00Z"},{"geoname_id":3577168,"name":"Matadera","ascii_name":"Matadera","alternate_names":"","latitude":"12.54969","longitude":"-70.02159","feature_class":"T","feature_code":"HLL","country_code":"AW","admin1_code":"00","dem":23,"timezone":"America/Aruba","modification_date":"0001-01-01T00:00:00Z"},{"geoname_id":3577169,"name":"Rooi Master","ascii_name":"Rooi Master","alternate_names":"","latitude":"12.44094","longitude":"-69.92481","feature_class":"H","feature_code":"STMI","country_code":"AW","admin1_code":"00","dem":4,"timezone":"America/Aruba","modification_date":"0001-01-01T00:00:00Z"},{"geoname_id":3577170,"name":"Master","ascii_name":"Master","alternate_names":"","latitude":"12.45172","longitude":"-69.95498","feature_class":"H","feature_code":"COVE","country_code":"AW","admin1_code":"00","dem":36,"timezone":"America/Aruba","modification_date":"0001-01-01T00:00:00Z"},{"geoname_id":3577171,"name":"Maria Mài","ascii_name":"Maria Mai","alternate_names":"Maria Mai,Maria Mài","latitude":"12.49322","longitude":"-69.96087","feature_class":"P","feature_code":"PPLX","country_code":"AW","admin1_code":"00","dem":37,"timezone":"America/Aruba","modification_date":"0001-01-01T00:00:00Z"},{"geoname_id":3577172,"name":"Marawiel","ascii_name":"Marawiel","alternate_names":"Marawiel","latitude":"12.54543","longitude":"-69.99113","feature_class":"P","feature_code":"PPLX","country_code":"AW","admin1_code":"00","dem":23,"timezone":"America/Aruba","modification_date":"0001-01-01T00:00:00Z"},{"geoname_id":3577173,"name":"Rooi Manonchi","ascii_name":"Rooi Manonchi","alternate_names":"","latitude":"12.51633","longitude":"-70.03495","feature_class":"H","feature_code":"STM","country_code":"AW","admin1_code":"00","dem":5,"timezone":"America/Aruba","modification_date":"0001-01-01T00:00:00Z"},{"geoname_id":3577174,"name":"Manshebu","ascii_name":"Manshebu","alternate_names":"Manchebo,Manshebu,Westpunt","latitude":"12.53333","longitude":"-70.05","feature_class":"T","feature_code":"PT","country_code":"AW","cc2":"AW","admin1_code":"00","dem":9,"timezone":"America/Aruba","modification_date":"0001-01-01T00:00:00Z"},{"geoname_id":3577175,"name":"Malmok","ascii_name":"Malmok","alternate_names":"","latitude":"12.6","longitude":"-70.06667","feature_class":"H","feature_code":"COVE","country_code":"AW","admin1_code":"00","dem":-9999,"timezone":"America/Aruba","modification_date":"0001-01-01T00:00:00Z"},{"geoname_id":3577176,"name":"Mahuma","ascii_name":"Mahuma","alternate_names":"Mahuma","latitude":"12.49709","longitude":"-69.99769","feature_class":"P","feature_code":"PPLX","country_code":"AW","admin1_code":"00","dem":11,"timezone":"America/Aruba","modification_date":"0001-01-01T00:00:00Z"},{"geoname_id":3577177,"name":"Boca Mahos","ascii_name":"Boca Mahos","alternate_names":"","latitude":"12.55283","longitude":"-69.97421","feature_class":"H","feature_code":"COVE","country_code":"AW","admin1_code":"00","dem":7,"timezone":"America/Aruba","modification_date":"0001-01-01T00:00:00Z"},{"geoname_id":3577178,"name":"Madiki","ascii_name":"Madiki","alternate_names":"Madiki","latitude":"12.52931","longitude":"-70.04188","feature_class":"P","feature_code":"PPLX","country_code":"AW","admin1_code":"00","dem":6,"timezone":"America/Aruba","modification_date":"0001-01-01T00:00:00Z"},{"geoname_id":3577179,"name":"Macuarima","ascii_name":"Macuarima","alternate_names":"Macuarima","latitude":"12.49889","longitude":"-69.97469","feature_class":"P","feature_code":"PPLL","country_code":"AW","admin1_code":"00","dem":43,"timezone":"America/Aruba","modification_date":"0001-01-01T00:00:00Z"},{"geoname_id":3577180,"name":"Mabon","ascii_name":"Mabon","alternate_names":"","latitude":"12.45271","longitude":"-69.92553","feature_class":"P","feature_code":"PPLX","country_code":"AW","admin1_code":"00","dem":28,"timezone":"America/Aruba","modification_date":"0001-01-01T00:00:00Z"},{"geoname_id":3577181,"name":"Ser’i Lopes","ascii_name":"Ser'i Lopes","alternate_names":"","latitude":"12.53326","longitude":"-69.9896","feature_class":"T","feature_code":"HLL","country_code":"AW","admin1_code":"00","dem":36,"timezone":"America/Aruba","modification_date":"0001-01-01T00:00:00Z"},{"geoname_id":3577182,"name":"Tanki Lender","ascii_name":"Tanki Lender","alternate_names":"Tanki Lender","latitude":"12.53515","longitude":"-70.02289","feature_class":"H","feature_code":"WTRH","country_code":"AW","admin1_code":"00","dem":20,"timezone":"America/Aruba","modification_date":"0001-01-01T00:00:00Z"},{"geoname_id":3577183,"name":"Rooi Lamunchi","ascii_name":"Rooi Lamunchi","alternate_names":"","latitude":"12.45838","longitude":"-69.95818","feature_class":"H","feature_code":"STMI","country_code":"AW","admin1_code":"00","dem":6,"timezone":"America/Aruba","modification_date":"0001-01-01T00:00:00Z"},{"geoname_id":3577184,"name":"Lagoen","ascii_name":"Lagoen","alternate_names":"","latitude":"12.46667","longitude":"-70","feature_class":"H","feature_code":"LGN","country_code":"AW","admin1_code":"00","dem":-9999,"timezone":"America/Aruba","modification_date":"0001-01-01T00:00:00Z"},{"geoname_id":3577185,"name":"Klein Lagoen","ascii_name":"Klein Lagoen","alternate_names":"","latitude":"12.41307","longitude":"-69.88116","feature_class":"H","feature_code":"LGN","country_code":"AW","admin1_code":"00","dem":1,"timezone":"America/Aruba","modification_date":"0001-01-01T00:00:00Z"},{"geoname_id":3577186,"name":"Kleine Jamanota","ascii_name":"Kleine Jamanota","alternate_names":"","latitude":"12.48848","longitude":"-69.95233","feature_class":"T","feature_code":"HLL","country_code":"AW","admin1_code":"00","dem":108,"timezone":"America/Aruba","modification_date":"0001-01-01T00:00:00Z"},{"geoname_id":3577187,"name":"Boca Keto","ascii_name":"Boca Keto","alternate_names":"Boca Keto,Boca Ketu","latitude":"12.52722","longitude":"-69.93426","feature_class":"H","feature_code":"COVE","country_code":"AW","admin1_code":"00","dem":5,"timezone":"America/Aruba","modification_date":"0001-01-01T00:00:00Z"},{"geoname_id":3577188,"name":"Kaas di Paloma","ascii_name":"Kaas di Paloma","alternate_names":"Kaas di Paloma,Kas-di-Palma","latitude":"12.48333","longitude":"-70.01667","feature_class":"T","feature_code":"CAPE","country_code":"AW","cc2":"AW","admin1_code":"00","dem":-9999,"timezone":"America/Aruba","modification_date":"0001-01-01T00:00:00Z"},{"geoname_id":3577189,"name":"Juwana Morto","ascii_name":"Juwana Morto","alternate_names":"Juwana Morto","latitude":"12.44084","longitude":"-69.8904","feature_class":"P","feature_code":"PPLX","country_code":"AW","admin1_code":"00","dem":50,"timezone":"America/Aruba","modification_date":"0001-01-01T00:00:00Z"},{"geoname_id":3577190,"name":"Jucuri","ascii_name":"Jucuri","alternate_names":"Jucuri,Jukuri","latitude":"12.50146","longitude":"-69.99243","feature_class":"T","feature_code":"HLL","country_code":"AW","admin1_code":"00","dem":46,"timezone":"America/Aruba","modification_date":"0001-01-01T00:00:00Z"},{"geoname_id":3577191,"name":"Jan Flemming","ascii_name":"Jan Flemming","alternate_names":"Jan Flemming","latitude":"12.49729","longitude":"-69.97449","feature_class":"P","feature_code":"PPLX","country_code":"AW","admin1_code":"00","dem":41,"timezone":"America/Aruba","modification_date":"0001-01-01T00:00:00Z"},{"geoname_id":3577192,"name":"Ser’i Janchi","ascii_name":"Ser'i Janchi","alternate_names":"","latitude":"12.55505","longitude":"-70.01945","feature_class":"T","feature_code":"HLL","country_code":"AW","admin1_code":"00","dem":34,"timezone":"America/Aruba","modification_date":"0001-01-01T00:00:00Z"},{"geoname_id":3577193,"name":"Jamanota","ascii_name":"Jamanota","alternate_names":"Jamanota","latitude":"12.49114","longitude":"-69.95411","feature_class":"P","feature_code":"PPLL","country_code":"AW","admin1_code":"00","dem":58,"timezone":"America/Aruba","modification_date":"0001-01-01T00:00:00Z"},{"geoname_id":3577194,"name":"Ceru Jamanota","ascii_name":"Ceru Jamanota","alternate_names":"Ceru Jamanota,Jamanota,Sero Jamanota","latitude":"12.48711","longitude":"-69.9406","feature_class":"T","feature_code":"HLL","country_code":"AW","cc2":"AW","admin1_code":"00","dem":181,"timezone":"America/Aruba","modification_date":"0001-01-01T00:00:00Z"},{"geoname_id":3577195,"name":"Jaburibari","ascii_name":"Jaburibari","alternate_names":"","latitude":"12.54973","longitude":"-70.00019","feature_class":"T","feature_code":"HLL","country_code":"AW","admin1_code":"00","dem":83,"timezone":"America/Aruba","modification_date":"0001-01-01T00:00:00Z"},{"geoname_id":3577196,"name":"Indiaanskop","ascii_name":"Indiaanskop","alternate_names":"Indiaanskop","latitude":"12.41881","longitude":"-69.89744","feature_class":"T","feature_code":"ISL","country_code":"AW","admin1_code":"00","dem":1,"timezone":"America/Aruba","modification_date":"0001-01-01T00:00:00Z"},{"geoname_id":3577197,"name":"Rooi Hundu","ascii_name":"Rooi Hundu","alternate_names":"","latitude":"12.43847","longitude":"-69.90235","feature_class":"H","feature_code":"STMI","country_code":"AW","admin1_code":"00","dem":21,"timezone":"America/Aruba","modification_date":"0001-01-01T00:00:00Z"},{"geoname_id":3577198,"name":"Hudishibana","ascii_name":"Hudishibana","alternate_names":"Hudishibana,Noordwestpunt","latitude":"12.61273","longitude":"-70.04897","feature_class":"T","feature_code":"HLL","country_code":"AW","admin1_code":"00","dem":21,"timezone":"America/Aruba","modification_date":"0001-01-01T00:00:00Z"},{"geoname_id":3577199,"name":"Hooiberg","ascii_name":"Hooiberg","alternate_names":"Hooiberg","latitude":"12.51726","longitude":"-69.9951","feature_class":"T","feature_code":"HLL","country_code":"AW","admin1_code":"00","dem":138,"timezone":"America/Aruba","modification_date":"0001-01-01T00:00:00Z"},{"geoname_id":3577200,"name":"Hadicurari","ascii_name":"Hadicurari","alternate_names":"Hadicurari,Hadikoerari","latitude":"12.58828","longitude":"-70.04708","feature_class":"H","feature_code":"COVE","country_code":"AW","admin1_code":"00","timezone":"America/Aruba","modification_date":"0001-01-01T00:00:00Z"},{"geoname_id":3577201,"name":"Habrie","ascii_name":"Habrie","alternate_names":"","latitude":"12.5","longitude":"-70.03333","feature_class":"H","feature_code":"STRT","country_code":"AW","admin1_code":"00","dem":-9999,"timezone":"America/Aruba","modification_date":"0001-01-01T00:00:00Z"},{"geoname_id":3577202,"name":"Gran Tonél","ascii_name":"Gran Tonel","alternate_names":"","latitude":"12.48645","longitude":"-69.92882","feature_class":"T","feature_code":"HLL","country_code":"AW","admin1_code":"00","dem":148,"timezone":"America/Aruba","modification_date":"0001-01-01T00:00:00Z"},{"geoname_id":3577203,"name":"Sero Grandi","ascii_name":"Sero Grandi","alternate_names":"Ceru Grandi,Sero Grandi,Seroe Grandi","latitude":"12.59618","longitude":"-70.02233","feature_class":"T","feature_code":"HLL","country_code":"AW","admin1_code":"00","dem":44,"timezone":"America/Aruba","modification_date":"0001-01-01T00:00:00Z"},{"geoname_id":3577204,"name":"Boca Grandi","ascii_name":"Boca Grandi","alternate_names":"","latitude":"12.58534","longitude":"-70.01282","feature_class":"H","feature_code":"COVE","country_code":"AW","admin1_code":"00","dem":3,"timezone":"America/Aruba","modification_date":"0001-01-01T00:00:00Z"},{"geoname_id":3577205,"name":"Boca Grandi","ascii_name":"Boca Grandi","alternate_names":"Boca Grandi","latitude":"12.43956","longitude":"-69.8738","feature_class":"H","feature_code":"COVE","country_code":"AW","admin1_code":"00","dem":-1,"timezone":"America/Aruba","modification_date":"0001-01-01T00:00:00Z"},{"geoname_id":3577206,"name":"Ser’i Gerard","ascii_name":"Ser'i Gerard","alternate_names":"","latitude":"12.5543","longitude":"-69.99054","feature_class":"T","feature_code":"HLL","country_code":"AW","admin1_code":"00","dem":70,"timezone":"America/Aruba","modification_date":"0001-01-01T00:00:00Z"},{"geoname_id":3577207,"name":"Gasparito","ascii_name":"Gasparito","alternate_names":"Gasparito","latitude":"12.5623","longitude":"-70.04175","feature_class":"P","feature_code":"PPLX","country_code":"AW","admin1_code":"00","dem":6,"timezone":"America/Aruba","modification_date":"0001-01-01T00:00:00Z"},{"geoname_id":3577208,"name":"Rooi Frances","ascii_name":"Rooi Frances","alternate_names":"","latitude":"12.48249","longitude":"-69.97187","feature_class":"H","feature_code":"STMI","country_code":"AW","admin1_code":"00","dem":6,"timezone":"America/Aruba","modification_date":"0001-01-01T00:00:00Z"},{"geoname_id":3577209,"name":"Fontein","ascii_name":"Fontein","alternate_names":"Fontein","latitude":"12.49258","longitude":"-69.90574","feature_class":"P","feature_code":"PPL","country_code":"AW","admin1_code":"00","dem":16,"timezone":"America/Aruba","modification_date":"0001-01-01T00:00:00Z"},{"geoname_id":3577210,"name":"Fofoti","ascii_name":"Fofoti","alternate_names":"","latitude":"12.5","longitude":"-70.03333","feature_class":"H","feature_code":"INLT","country_code":"AW","admin1_code":"00","dem":-9999,"timezone":"America/Aruba","modification_date":"0001-01-01T00:00:00Z"},{"geoname_id":3577211,"name":"Rooi Fluit","ascii_name":"Rooi Fluit","alternate_names":"","latitude":"12.52586","longitude":"-69.93509","feature_class":"H","feature_code":"STMI","country_code":"AW","admin1_code":"00","dem":9,"timezone":"America/Aruba","modification_date":"0001-01-01T00:00:00Z"},{"geoname_id":3577212,"name":"Tanki Flip","ascii_name":"Tanki Flip","alternate_names":"","latitude":"12.54867","longitude":"-70.03334","feature_class":"H","feature_code":"WTRH","country_code":"AW","admin1_code":"00","dem":13,"timezone":"America/Aruba","modification_date":"0001-01-01T00:00:00Z"},{"geoname_id":3577213,"name":"Falcon","ascii_name":"Falcon","alternate_names":"","latitude":"12.5376","longitude":"-70.01583","feature_class":"P","feature_code":"PPLX","country_code":"AW","admin1_code":"00","dem":29,"timezone":"America/Aruba","modification_date":"0001-01-01T00:00:00Z"},{"geoname_id":3577214,"name":"Eagle Beach","ascii_name":"Eagle Beach","alternate_names":"","latitude":"12.54786","longitude":"-70.0569","feature_class":"P","feature_code":"PPLL","country_code":"AW","admin1_code":"00","dem":8,"timezone":"America/Aruba","modification_date":"0001-01-01T00:00:00Z"},{"geoname_id":3577215,"name":"Rooi Dwars","ascii_name":"Rooi Dwars","alternate_names":"","latitude":"12.48933","longitude":"-69.91588","feature_class":"H","feature_code":"STMI","country_code":"AW","admin1_code":"00","dem":63,"timezone":"America/Aruba","modification_date":"0001-01-01T00:00:00Z"},{"geoname_id":3577216,"name":"Boca Druif","ascii_name":"Boca Druif","alternate_names":"","latitude":"12.50001","longitude":"-69.90804","feature_class":"H","feature_code":"COVE","country_code":"AW","admin1_code":"00","dem":5,"timezone":"America/Aruba","modification_date":"0001-01-01T00:00:00Z"},{"geoname_id":3577217,"name":"Druif","ascii_name":"Druif","alternate_names":"Druif","latitude":"12.6","longitude":"-70.01667","feature_class":"T","feature_code":"PT","country_code":"AW","admin1_code":"00","dem":1,"timezone":"America/Aruba","modification_date":"0001-01-01T00:00:00Z"},{"geoname_id":3577218,"name":"Druif","ascii_name":"Druif","alternate_names":"Druif","latitude":"12.55","longitude":"-70.05","feature_class":"T","feature_code":"PT","country_code":"AW","admin1_code":"00","dem":7,"timezone":"America/Aruba","modification_date":"0001-01-01T00:00:00Z"},{"geoname_id":3577219,"name":"Druif","ascii_name":"Druif","alternate_names":"Druif","latitude":"12.53333","longitude":"-70.06667","feature_class":"P","feature_code":"PPL","country_code":"AW","admin1_code":"00","dem":-9999,"timezone":"America/Aruba","modification_date":"0001-01-01T00:00:00Z"},{"geoname_id":3577220,"name":"Dos Playa","ascii_name":"Dos Playa","alternate_names":"","latitude":"12.50612","longitude":"-69.91741","feature_class":"H","feature_code":"COVE","country_code":"AW","admin1_code":"00","dem":2,"timezone":"America/Aruba","modification_date":"0001-01-01T00:00:00Z"},{"geoname_id":3577221,"name":"De Vuyst","ascii_name":"De Vuyst","alternate_names":"","latitude":"12.43333","longitude":"-69.88333","feature_class":"S","feature_code":"AIRF","country_code":"AW","admin1_code":"00","dem":35,"timezone":"America/Aruba","modification_date":"0001-01-01T00:00:00Z"},{"geoname_id":3577222,"name":"Daimari","ascii_name":"Daimari","alternate_names":"Daimari","latitude":"12.53107","longitude":"-69.93886","feature_class":"H","feature_code":"COVE","country_code":"AW","admin1_code":"00","dem":4,"timezone":"America/Aruba","modification_date":"0001-01-01T00:00:00Z"},{"geoname_id":3577223,"name":"Dacota","ascii_name":"Dacota","alternate_names":"Dacota,Dakota","latitude":"12.51514","longitude":"-70.022","feature_class":"P","feature_code":"PPLX","country_code":"AW","admin1_code":"00","dem":13,"timezone":"America/Aruba","modification_date":"0001-01-01T00:00:00Z"},{"geoname_id":3577224,"name":"Curimiao","ascii_name":"Curimiao","alternate_names":"Curimiao,Kurimiauw","latitude":"12.57708","longitude":"-70.02361","feature_class":"T","feature_code":"HLL","country_code":"AW","admin1_code":"00","dem":48,"timezone":"America/Aruba","modification_date":"0001-01-01T00:00:00Z"},{"geoname_id":3577225,"name":"Cura Cabai","ascii_name":"Cura Cabai","alternate_names":"Cura Cabai","latitude":"12.44202","longitude":"-69.92978","feature_class":"P","feature_code":"PPLL","country_code":"AW","admin1_code":"00","dem":6,"timezone":"America/Aruba","modification_date":"0001-01-01T00:00:00Z"},{"geoname_id":3577226,"name":"Boca Curá","ascii_name":"Boca Cura","alternate_names":"","latitude":"12.58441","longitude":"-70.01172","feature_class":"H","feature_code":"BAY","country_code":"AW","admin1_code":"00","dem":5,"timezone":"America/Aruba","modification_date":"0001-01-01T00:00:00Z"},{"geoname_id":3577227,"name":"Cunucu Abao","ascii_name":"Cunucu Abao","alternate_names":"Cunucu Abao","latitude":"12.54787","longitude":"-70.04694","feature_class":"P","feature_code":"PPLX","country_code":"AW","admin1_code":"00","dem":9,"timezone":"America/Aruba","modification_date":"0001-01-01T00:00:00Z"},{"geoname_id":3577228,"name":"Cumaná","ascii_name":"Cumana","alternate_names":"","latitude":"12.51905","longitude":"-70.01639","feature_class":"P","feature_code":"PPLX","country_code":"AW","admin1_code":"00","dem":24,"timezone":"America/Aruba","modification_date":"0001-01-01T00:00:00Z"},{"geoname_id":3577229,"name":"Cudawecha","ascii_name":"Cudawecha","alternate_names":"","latitude":"12.55572","longitude":"-70.00944","feature_class":"T","feature_code":"HLL","country_code":"AW","admin1_code":"00","dem":36,"timezone":"America/Aruba","modification_date":"0001-01-01T00:00:00Z"},{"geoname_id":3577230,"name":"Cudarebe","ascii_name":"Cudarebe","alternate_names":"Cudarebe,Kudarebe","latitude":"12.62281","longitude":"-70.05579","feature_class":"T","feature_code":"CAPE","country_code":"AW","admin1_code":"00","dem":6,"timezone":"America/Aruba","modification_date":"0001-01-01T00:00:00Z"},{"geoname_id":3577231,"name":"Sero Cristal","ascii_name":"Sero Cristal","alternate_names":"Ceru Cristal,Sero Cristal,Sero Crystal","latitude":"12.54981","longitude":"-69.99293","feature_class":"T","feature_code":"HLL","country_code":"AW","cc2":"AW","admin1_code":"00","dem":91,"timezone":"America/Aruba","modification_date":"0001-01-01T00:00:00Z"},{"geoname_id":3577232,"name":"Sero Corobori","ascii_name":"Sero Corobori","alternate_names":"","latitude":"12.544","longitude":"-69.98678","feature_class":"T","feature_code":"HLL","country_code":"AW","admin1_code":"00","dem":49,"timezone":"America/Aruba","modification_date":"0001-01-01T00:00:00Z"},{"geoname_id":3577233,"name":"Rooi Congo","ascii_name":"Rooi Congo","alternate_names":"","latitude":"12.44419","longitude":"-69.91444","feature_class":"H","feature_code":"STMI","country_code":"AW","admin1_code":"00","dem":24,"timezone":"America/Aruba","modification_date":"0001-01-01T00:00:00Z"},{"geoname_id":3577234,"name":"Ser’i Compa","ascii_name":"Ser'i Compa","alternate_names":"","latitude":"12.51627","longitude":"-69.9694","feature_class":"T","feature_code":"HLL","country_code":"AW","admin1_code":"00","dem":64,"timezone":"America/Aruba","modification_date":"0001-01-01T00:00:00Z"},{"geoname_id":3577235,"name":"Commandeursbaai","ascii_name":"Commandeursbaai","alternate_names":"Commandeursbaai,Kommandeurs baai","latitude":"12.44431","longitude":"-69.94597","feature_class":"H","feature_code":"LGN","country_code":"AW","admin1_code":"00","dem":31,"timezone":"America/Aruba","modification_date":"0001-01-01T00:00:00Z"},{"geoname_id":3577236,"name":"Sero Colorado","ascii_name":"Sero Colorado","alternate_names":"Ceru Colorado,Sero Colorado,Seroe Colorado","latitude":"12.41837","longitude":"-69.86876","feature_class":"T","feature_code":"HLL","country_code":"AW","cc2":"AW","admin1_code":"00","dem":38,"timezone":"America/Aruba","modification_date":"0001-01-01T00:00:00Z"},{"geoname_id":3577237,"name":"Seco di Coco","ascii_name":"Seco di Coco","alternate_names":"","latitude":"12.57087","longitude":"-70.04832","feature_class":"H","feature_code":"BGHT","country_code":"AW","admin1_code":"00","dem":2,"timezone":"America/Aruba","modification_date":"0001-01-01T00:00:00Z"},{"geoname_id":3577238,"name":"Rooi Cochi","ascii_name":"Rooi Cochi","alternate_names":"","latitude":"12.44655","longitude":"-69.93774","feature_class":"H","feature_code":"STMI","country_code":"AW","admin1_code":"00","dem":10,"timezone":"America/Aruba","modification_date":"0001-01-01T00:00:00Z"},{"geoname_id":3577239,"name":"Coba Lodo","ascii_name":"Coba Lodo","alternate_names":"Coba Lodo,Cobo Lodo","latitude":"12.5","longitude":"-69.95","feature_class":"P","feature_code":"PPLL","country_code":"AW","admin1_code":"00","dem":70,"timezone":"America/Aruba","modification_date":"0001-01-01T00:00:00Z"},{"geoname_id":3577240,"name":"Boca Chikito","ascii_name":"Boca Chikito","alternate_names":"Boca Chikito,Boca Chikitu","latitude":"12.57166","longitude":"-69.9991","feature_class":"H","feature_code":"COVE","country_code":"AW","admin1_code":"00","dem":7,"timezone":"America/Aruba","modification_date":"0001-01-01T00:00:00Z"},{"geoname_id":3577241,"name":"Catiri","ascii_name":"Catiri","alternate_names":"Catiri","latitude":"12.54263","longitude":"-70.01662","feature_class":"P","feature_code":"PPLX","country_code":"AW","admin1_code":"00","dem":30,"timezone":"America/Aruba","modification_date":"0001-01-01T00:00:00Z"},{"geoname_id":3577242,"name":"Catashi","ascii_name":"Catashi","alternate_names":"Catashi","latitude":"12.51521","longitude":"-69.95809","feature_class":"P","feature_code":"PPLX","country_code":"AW","admin1_code":"00","dem":61,"timezone":"America/Aruba","modification_date":"0001-01-01T00:00:00Z"},{"geoname_id":3577243,"name":"Boca Catalina","ascii_name":"Boca Catalina","alternate_names":"","latitude":"12.60429","longitude":"-70.05201","feature_class":"H","feature_code":"COVE","country_code":"AW","admin1_code":"00","timezone":"America/Aruba","modification_date":"0001-01-01T00:00:00Z"},{"geoname_id":3577244,"name":"Casibari","ascii_name":"Casibari","alternate_names":"Casibari","latitude":"12.53251","longitude":"-69.99658","feature_class":"P","feature_code":"PPLX","country_code":"AW","admin1_code":"00","dem":39,"timezone":"America/Aruba","modification_date":"0001-01-01T00:00:00Z"},{"geoname_id":3577245,"name":"Cashero","ascii_name":"Cashero","alternate_names":"Cashero","latitude":"12.52327","longitude":"-69.97885","feature_class":"P","feature_code":"PPLL","country_code":"AW","admin1_code":"00","dem":38,"timezone":"America/Aruba","modification_date":"0001-01-01T00:00:00Z"},{"geoname_id":3577246,"name":"Cas di Paloma","ascii_name":"Cas di Paloma","alternate_names":"Cas di Paloma,Kas Di Paloma","latitude":"12.49099","longitude":"-70.00424","feature_class":"P","feature_code":"PPLX","country_code":"AW","admin1_code":"00","dem":11,"timezone":"America/Aruba","modification_date":"0001-01-01T00:00:00Z"},{"geoname_id":3577247,"name":"Tanki Cas Ariba","ascii_name":"Tanki Cas Ariba","alternate_names":"","latitude":"12.51099","longitude":"-69.97323","feature_class":"H","feature_code":"WTRH","country_code":"AW","admin1_code":"00","dem":44,"timezone":"America/Aruba","modification_date":"0001-01-01T00:00:00Z"},{"geoname_id":3577248,"name":"Cas Ariba","ascii_name":"Cas Ariba","alternate_names":"Cas Ariba","latitude":"12.5","longitude":"-69.95","feature_class":"P","feature_code":"PPLL","country_code":"AW","admin1_code":"00","dem":70,"timezone":"America/Aruba","modification_date":"0001-01-01T00:00:00Z"},{"geoname_id":3577249,"name":"Sero Canashito","ascii_name":"Sero Canashito","alternate_names":"Sero Canashito,Seroe Canashito","latitude":"12.50776","longitude":"-69.99587","feature_class":"T","feature_code":"HLL","country_code":"AW","admin1_code":"00","dem":53,"timezone":"America/Aruba","modification_date":"0001-01-01T00:00:00Z"},{"geoname_id":3577250,"name":"Canashito","ascii_name":"Canashito","alternate_names":"Canashito,Canashitu","latitude":"12.51081","longitude":"-69.9883","feature_class":"P","feature_code":"PPLX","country_code":"AW","admin1_code":"00","dem":24,"timezone":"America/Aruba","modification_date":"0001-01-01T00:00:00Z"},{"geoname_id":3577251,"name":"Camacuri","ascii_name":"Camacuri","alternate_names":"Camacuri","latitude":"12.50761","longitude":"-70.02205","feature_class":"P","feature_code":"PPLX","country_code":"AW","admin1_code":"00","dem":8,"timezone":"America/Aruba","modification_date":"0001-01-01T00:00:00Z"},{"geoname_id":3577252,"name":"California","ascii_name":"California","alternate_names":"","latitude":"12.61976","longitude":"-70.04717","feature_class":"T","feature_code":"PT","country_code":"AW","admin1_code":"00","dem":2,"timezone":"America/Aruba","modification_date":"0001-01-01T00:00:00Z"},{"geoname_id":3577253,"name":"Calabas","ascii_name":"Calabas","alternate_names":"Calabas,Calbas","latitude":"12.55837","longitude":"-70.00913","feature_class":"P","feature_code":"PPLX","country_code":"AW","admin1_code":"00","dem":38,"timezone":"America/Aruba","modification_date":"0001-01-01T00:00:00Z"},{"geoname_id":3577254,"name":"Cadushi Largo","ascii_name":"Cadushi Largo","alternate_names":"Cadushi Largo,Largo Cadushi","latitude":"12.5196","longitude":"-69.97102","feature_class":"P","feature_code":"PPLX","country_code":"AW","admin1_code":"00","dem":67,"timezone":"America/Aruba","modification_date":"0001-01-01T00:00:00Z"},{"geoname_id":3577255,"name":"Sero Cabai","ascii_name":"Sero Cabai","alternate_names":"","latitude":"12.49298","longitude":"-69.93746","feature_class":"T","feature_code":"HLL","country_code":"AW","admin1_code":"00","dem":164,"timezone":"America/Aruba","modification_date":"0001-01-01T00:00:00Z"},{"geoname_id":3577256,"name":"Butucu","ascii_name":"Butucu","alternate_names":"Butucu","latitude":"12.47246","longitude":"-69.91439","feature_class":"P","feature_code":"PPL","country_code":"AW","admin1_code":"00","dem":65,"timezone":"America/Aruba","modification_date":"0001-01-01T00:00:00Z"},{"geoname_id":3577257,"name":"Bushiribana","ascii_name":"Bushiribana","alternate_names":"Bushiri,Bushiribana,Bushiribans","latitude":"12.55025","longitude":"-69.97319","feature_class":"P","feature_code":"PPLL","country_code":"AW","admin1_code":"00","dem":8,"timezone":"America/Aruba","modification_date":"0001-01-01T00:00:00Z"},{"geoname_id":3577258,"name":"Budui","ascii_name":"Budui","alternate_names":"Boedoei,Budui","latitude":"12.55659","longitude":"-69.98014","feature_class":"H","feature_code":"COVE","country_code":"AW","admin1_code":"00","dem":7,"timezone":"America/Aruba","modification_date":"0001-01-01T00:00:00Z"},{"geoname_id":3577259,"name":"Bucuti","ascii_name":"Bucuti","alternate_names":"Boekoetie,Bucuti","latitude":"12.50788","longitude":"-70.03716","feature_class":"H","feature_code":"CHN","country_code":"AW","admin1_code":"00","dem":-9999,"timezone":"America/Aruba","modification_date":"0001-01-01T00:00:00Z"},{"geoname_id":3577260,"name":"Bucurui","ascii_name":"Bucurui","alternate_names":"","latitude":"12.5607","longitude":"-70.03284","feature_class":"T","feature_code":"HLL","country_code":"AW","admin1_code":"00","dem":27,"timezone":"America/Aruba","modification_date":"0001-01-01T00:00:00Z"},{"geoname_id":3577261,"name":"Bubali","ascii_name":"Bubali","alternate_names":"Bubali","latitude":"12.55133","longitude":"-70.04288","feature_class":"P","feature_code":"PPLX","country_code":"AW","admin1_code":"00","dem":8,"timezone":"America/Aruba","modification_date":"0001-01-01T00:00:00Z"},{"geoname_id":3577262,"name":"Bringamosa","ascii_name":"Bringamosa","alternate_names":"Bringamosa","latitude":"12.49105","longitude":"-69.96321","feature_class":"P","feature_code":"PPLL","country_code":"AW","admin1_code":"00","dem":30,"timezone":"America/Aruba","modification_date":"0001-01-01T00:00:00Z"},{"geoname_id":3577263,"name":"Brasil","ascii_name":"Brasil","alternate_names":"","latitude":"12.44798","longitude":"-69.92538","feature_class":"P","feature_code":"PPL","country_code":"AW","admin1_code":"00","dem":21,"timezone":"America/Aruba","modification_date":"0001-01-01T00:00:00Z"},{"geoname_id":3577264,"name":"Punta Brabo","ascii_name":"Punta Brabo","alternate_names":"Punta Brabo,Punta Braboe,Punta Brabu","latitude":"12.53179","longitude":"-70.05597","feature_class":"T","feature_code":"PT","country_code":"AW","admin1_code":"00","dem":5,"timezone":"America/Aruba","modification_date":"0001-01-01T00:00:00Z"},{"geoname_id":3577265,"name":"Boton","ascii_name":"Boton","alternate_names":"Boton","latitude":"12.49465","longitude":"-69.9654","feature_class":"P","feature_code":"PPLL","country_code":"AW","admin1_code":"00","dem":28,"timezone":"America/Aruba","modification_date":"0001-01-01T00:00:00Z"},{"geoname_id":3577266,"name":"Rooi Bosal","ascii_name":"Rooi Bosal","alternate_names":"","latitude":"12.47774","longitude":"-69.98622","feature_class":"H","feature_code":"STMI","country_code":"AW","admin1_code":"00","dem":8,"timezone":"America/Aruba","modification_date":"0001-01-01T00:00:00Z"},{"geoname_id":3577267,"name":"Sero Bonchi","ascii_name":"Sero Bonchi","alternate_names":"","latitude":"12.50407","longitude":"-69.94786","feature_class":"T","feature_code":"HLL","country_code":"AW","admin1_code":"00","dem":131,"timezone":"America/Aruba","modification_date":"0001-01-01T00:00:00Z"},{"geoname_id":3577268,"name":"Blumond","ascii_name":"Blumond","alternate_names":"Blumond","latitude":"12.53799","longitude":"-69.99924","feature_class":"P","feature_code":"PPLX","country_code":"AW","admin1_code":"00","dem":42,"timezone":"America/Aruba","modification_date":"0001-01-01T00:00:00Z"},{"geoname_id":3577269,"name":"Sero Biento","ascii_name":"Sero Biento","alternate_names":"Ceru Bientu,Sero Biento,Seroe Bientoe","latitude":"12.51211","longitude":"-69.99675","feature_class":"T","feature_code":"HLL","country_code":"AW","admin1_code":"00","dem":63,"timezone":"America/Aruba","modification_date":"0001-01-01T00:00:00Z"},{"geoname_id":3577270,"name":"Punta Basora","ascii_name":"Punta Basora","alternate_names":"Kaap Bassora,Punt Basora,Punta Basora,Punta Colorado","latitude":"12.41621","longitude":"-69.86674","feature_class":"T","feature_code":"PT","country_code":"AW","cc2":"AW","admin1_code":"00","dem":8,"timezone":"America/Aruba","modification_date":"0001-01-01T00:00:00Z"},{"geoname_id":3577271,"name":"Basiruti","ascii_name":"Basiruti","alternate_names":"Basiroeti,Basiruti","latitude":"12.57963","longitude":"-70.0456","feature_class":"H","feature_code":"COVE","country_code":"AW","admin1_code":"00","dem":1,"timezone":"America/Aruba","modification_date":"0001-01-01T00:00:00Z"},{"geoname_id":3577272,"name":"Barcelona","ascii_name":"Barcelona","alternate_names":"Barcelona","latitude":"12.51578","longitude":"-70.01654","feature_class":"P","feature_code":"PPLX","country_code":"AW","admin1_code":"00","dem":20,"timezone":"America/Aruba","modification_date":"0001-01-01T00:00:00Z"},{"geoname_id":3577273,"name":"Barcadera","ascii_name":"Barcadera","alternate_names":"","latitude":"12.48551","longitude":"-69.98325","feature_class":"P","feature_code":"PPLX","country_code":"AW","admin1_code":"00","dem":14,"timezone":"America/Aruba","modification_date":"0001-01-01T00:00:00Z"},{"geoname_id":3577274,"name":"Baranca Corá","ascii_name":"Baranca Cora","alternate_names":"","latitude":"12.48047","longitude":"-69.93431","feature_class":"T","feature_code":"VAL","country_code":"AW","admin1_code":"00","dem":122,"timezone":"America/Aruba","modification_date":"0001-01-01T00:00:00Z"},{"geoname_id":3577275,"name":"Banki Jerôme","ascii_name":"Banki Jerome","alternate_names":"Bank Jerome,Bank Jerôme,Banki Jerome,Banki Jerôme","latitude":"12.4336","longitude":"-69.8802","feature_class":"L","feature_code":"LCTY","country_code":"AW","admin1_code":"00","dem":32,"timezone":"America/Aruba","modification_date":"0001-01-01T00:00:00Z"},{"geoname_id":3577276,"name":"Balashi","ascii_name":"Balashi","alternate_names":"Balashi","latitude":"12.48367","longitude":"-69.97269","feature_class":"P","feature_code":"PPLX","country_code":"AW","admin1_code":"00","dem":10,"timezone":"America/Aruba","modification_date":"0001-01-01T00:00:00Z"},{"geoname_id":3577277,"name":"Babijn","ascii_name":"Babijn","alternate_names":"Babijn","latitude":"12.53973","longitude":"-69.99561","feature_class":"P","feature_code":"PPLL","country_code":"AW","admin1_code":"00","dem":52,"timezone":"America/Aruba","modification_date":"0001-01-01T00:00:00Z"},{"geoname_id":3577278,"name":"Rooi Awa Marga","ascii_name":"Rooi Awa Marga","alternate_names":"","latitude":"12.53442","longitude":"-69.95816","feature_class":"H","feature_code":"STMI","country_code":"AW","admin1_code":"00","dem":8,"timezone":"America/Aruba","modification_date":"0001-01-01T00:00:00Z"},{"geoname_id":3577279,"name":"Aruba","ascii_name":"Aruba","alternate_names":"'Alupa,Aroba,Arobà,Aroumpa,Aruba,Aruba nutome,Arubae,Arube,Arubha,Arubo,Arubë,Aruuba,Arùba,Arúba,Arûba,Country of Aruba,Land Aruba,Orileede Aruba,Orílẹ́ède Árúbà,Pais Aruba,a lu ba,aarruubarr,aarwba,aluba,arauba,aruba,aruba dao,arupa,arwba,he shu a lu ba,i-Aruba,xaru ba,yarwwba,yarۇba,Àrúbà,Árúbà,ʻAlupa,ʼarwbʼa,ʿaruba,ʿrwba,Αρούμπα,Арубæ,Аруба,Արուբա,אַרובאַ,ארובה,آروبا,أروبا,ئارووبا,ئارۇبا,اروبا,اَروٗبا,عروبا,އަރޫބާ,अरुबा,अरूबा,आरूबा,আরুবা,আৰুবা,ਅਰੂਬਾ,અરુબા,ଆରୁବା,அருபா,அரூபா,అరుబా,ಅರುಬಾ,അറുബ,അറൂബ,අරබා,අරුබාව,අරූබා,อารูบา,ອາຣບາ,ອາຣູບາ,ອາລູບາ,ཨ་ར་བ,ཨ་རུ་བ།,ཨ་རུ་བཱ,အာရူးဗား,არუბა,አሩባ,ኣሩባ,អារបា,អារូបា,アルバ,アルバ島,荷屬阿魯巴,阿魯巴,阿鲁巴,아루바","latitude":"12.5","longitude":"-69.96667","feature_class":"A","feature_code":"PCLIX","country_code":"AW","admin1_code":"00","population":105845,"dem":31,"timezone":"America/Aruba","modification_date":"0001-01-01T00:00:00Z"},{"geoname_id":3577280,"name":"Aruba Island","ascii_name":"Aruba Island","alternate_names":"AUA,Aroumpa,Aruba,Aruba Island,Arubo,Arúba,Ile d'Aruba,a lu ba,aluba,aruba,arwba,xaru ba,Île d'Aruba,Αρούμπα,Аруба,ארובה,أروبا,আরুবা,อารูบา,アルバ,阿魯巴,아루바","latitude":"12.513","longitude":"-69.97508","feature_class":"T","feature_code":"ISL","country_code":"AW","admin1_code":"00","population":105000,"dem":38,"timezone":"America/Aruba","modification_date":"0001-01-01T00:00:00Z"},{"geoname_id":3577281,"name":"Arikok","ascii_name":"Arikok","alternate_names":"Arikok","latitude":"12.50619","longitude":"-69.94429","feature_class":"T","feature_code":"HLL","country_code":"AW","admin1_code":"00","dem":182,"timezone":"America/Aruba","modification_date":"0001-01-01T00:00:00Z"},{"geoname_id":3577282,"name":"Arashi","ascii_name":"Arashi","alternate_names":"Arashi,Arasji","latitude":"12.60755","longitude":"-70.052","feature_class":"P","feature_code":"PPL","country_code":"AW","admin1_code":"00","dem":10,"timezone":"America/Aruba","modification_date":"0001-01-01T00:00:00Z"},{"geoname_id":3577283,"name":"Arashi","ascii_name":"Arashi","alternate_names":"Arashi,Arasji,Sint Arasji","latitude":"12.60955","longitude":"-70.05398","feature_class":"H","feature_code":"COVE","country_code":"AW","admin1_code":"00","dem":1,"timezone":"America/Aruba","modification_date":"0001-01-01T00:00:00Z"},{"geoname_id":3577284,"name":"Angochi","ascii_name":"Angochi","alternate_names":"Angochi","latitude":"12.51627","longitude":"-69.96321","feature_class":"P","feature_code":"PPLL","country_code":"AW","admin1_code":"00","dem":65,"timezone":"America/Aruba","modification_date":"0001-01-01T00:00:00Z"},{"geoname_id":3577285,"name":"Andicuri","ascii_name":"Andicuri","alternate_names":"Andicouri,Andicouri Baai,Andicuri","latitude":"12.54017","longitude":"-69.95405","feature_class":"H","feature_code":"BAY","country_code":"AW","cc2":"AW","admin1_code":"00","dem":-9999,"timezone":"America/Aruba","modification_date":"0001-01-01T00:00:00Z"},{"geoname_id":3577286,"name":"Anabui","ascii_name":"Anabui","alternate_names":"Anabui,Anaubi","latitude":"12.60409","longitude":"-70.03797","feature_class":"T","feature_code":"HLL","country_code":"AW","admin1_code":"00","dem":23,"timezone":"America/Aruba","modification_date":"0001-01-01T00:00:00Z"},{"geoname_id":3577287,"name":"Alto Vista","ascii_name":"Alto Vista","alternate_names":"Alto Vista,Ceru Alto Vista","latitude":"12.57329","longitude":"-70.01827","feature_class":"T","feature_code":"HLL","country_code":"AW","admin1_code":"00","dem":69,"timezone":"America/Aruba","modification_date":"0001-01-01T00:00:00Z"},{"geoname_id":3577288,"name":"Ser’i Alejandro","ascii_name":"Ser'i Alejandro","alternate_names":"Ceru Alejandro,Ser'i Alejandro,Ser’i Alejandro","latitude":"12.45721","longitude":"-69.94034","feature_class":"T","feature_code":"HLL","country_code":"AW","admin1_code":"00","dem":41,"timezone":"America/Aruba","modification_date":"0001-01-01T00:00:00Z"},{"geoname_id":3577289,"name":"Rooi Afó","ascii_name":"Rooi Afo","alternate_names":"","latitude":"12.52192","longitude":"-70.02115","feature_class":"H","feature_code":"STMI","country_code":"AW","admin1_code":"00","dem":10,"timezone":"America/Aruba","modification_date":"0001-01-01T00:00:00Z"},{"geoname_id":3740320,"name":"Haven Barcadera","ascii_name":"Haven Barcadera","alternate_names":"","latitude":"12.48333","longitude":"-70.00833","feature_class":"H","feature_code":"HBR","country_code":"AW","admin1_code":"00","dem":-9999,"timezone":"America/Aruba","modification_date":"0001-01-01T00:00:00Z"},{"geoname_id":3740321,"name":"Kenepa","ascii_name":"Kenepa","alternate_names":"","latitude":"12.47222","longitude":"-69.92917","feature_class":"T","feature_code":"HLL","country_code":"AW","admin1_code":"00","dem":131,"timezone":"America/Aruba","modification_date":"0001-01-01T00:00:00Z"},{"geoname_id":6463328,"name":"Radisson Aruba Resort \u0026 Casino","ascii_name":"Radisson Aruba Resort \u0026 Casino","alternate_names":"","latitude":"12.577","longitude":"-70.0449","feature_class":"S","feature_code":"HTL","country_code":"AW","admin1_code":"00","dem":3,"timezone":"America/Aruba","modification_date":"0001-01-01T00:00:00Z"},{"geoname_id":6463508,"name":"Occidental Grand Aruba - All Inclusive","ascii_name":"Occidental Grand Aruba - All Inclusive","alternate_names":"","latitude":"12.588","longitude":"-70.0459","feature_class":"S","feature_code":"HTL","country_code":"AW","admin1_code":"00","dem":5,"timezone":"America/Aruba","modification_date":"0001-01-01T00:00:00Z"},{"geoname_id":6464812,"name":"Renaissance Aruba Resort \u0026 Casino","ascii_name":"Renaissance Aruba Resort \u0026 Casino","alternate_names":"","latitude":"12.51924","longitude":"-70.03779","feature_class":"S","feature_code":"HTL","country_code":"AW","admin1_code":"00","dem":10,"timezone":"America/Aruba","modification_date":"0001-01-01T00:00:00Z"},{"geoname_id":6464927,"name":"Divi Aruba All Inclusive","ascii_name":"Divi Aruba All Inclusive","alternate_names":"","latitude":"12.544","longitude":"-70.0553","feature_class":"S","feature_code":"HTL","country_code":"AW","admin1_code":"00","dem":7,"timezone":"America/Aruba","modification_date":"0001-01-01T00:00:00Z"},{"geoname_id":6465204,"name":"Tamarijn Aruba All Inclusive","ascii_name":"Tamarijn Aruba All Inclusive","alternate_names":"","latitude":"12.5413","longitude":"-70.0524","feature_class":"S","feature_code":"HTL","country_code":"AW","admin1_code":"00","dem":5,"timezone":"America/Aruba","modification_date":"0001-01-01T00:00:00Z"},{"geoname_id":6473641,"name":"The Westin Aruba Resort","ascii_name":"The Westin Aruba Resort","alternate_names":"","latitude":"12.5706","longitude":"-70.0468","feature_class":"S","feature_code":"HTL","country_code":"AW","admin1_code":"00","dem":8,"timezone":"America/Aruba","modification_date":"0001-01-01T00:00:00Z"},{"geoname_id":6481679,"name":"Hyatt Regency Aruba Resort Spa and Casino","ascii_name":"Hyatt Regency Aruba Resort Spa and Casino","alternate_names":"","latitude":"12.53295","longitude":"-70.05544","feature_class":"S","feature_code":"HTL","country_code":"AW","admin1_code":"00","dem":5,"timezone":"America/Aruba","modification_date":"0001-01-01T00:00:00Z"},{"geoname_id":6496364,"name":"Talk of the Town","ascii_name":"Talk of the Town","alternate_names":"","latitude":"12.5147","longitude":"-70.0234","feature_class":"S","feature_code":"HTL","country_code":"AW","admin1_code":"00","dem":10,"timezone":"America/Aruba","modification_date":"0001-01-01T00:00:00Z"},{"geoname_id":6497309,"name":"Brickell Bay Beach Club","ascii_name":"Brickell Bay Beach Club","alternate_names":"","latitude":"12.5733","longitude":"-70.0393","feature_class":"S","feature_code":"HTL","country_code":"AW","admin1_code":"00","dem":8,"timezone":"America/Aruba","modification_date":"0001-01-01T00:00:00Z"},{"geoname_id":6497853,"name":"MVC Eagle Beach","ascii_name":"MVC Eagle Beach","alternate_names":"","latitude":"12.5532","longitude":"-70.0525","feature_class":"S","feature_code":"HTL","country_code":"AW","admin1_code":"00","dem":6,"timezone":"America/Aruba","modification_date":"0001-01-01T00:00:00Z"},{"geoname_id":6500277,"name":"La Cabana Villas","ascii_name":"La Cabana Villas","alternate_names":"","latitude":"12.5587","longitude":"-70.0506","feature_class":"S","feature_code":"HTL","country_code":"AW","admin1_code":"00","dem":-3,"timezone":"America/Aruba","modification_date":"0001-01-01T00:00:00Z"},{"geoname_id":6501207,"name":"Manchebo Beach Resort and Spa","ascii_name":"Manchebo Beach Resort and Spa","alternate_names":"","latitude":"12.5486","longitude":"-70.0581","feature_class":"S","feature_code":"HTL","country_code":"AW","admin1_code":"00","dem":1,"timezone":"America/Aruba","modification_date":"0001-01-01T00:00:00Z"},{"geoname_id":6501508,"name":"Aruba Bucuti Beach Resort \u0026 Tara Beach Suites","ascii_name":"Aruba Bucuti Beach Resort \u0026 Tara Beach Suites","alternate_names":"","latitude":"12.5559","longitude":"-70.0543","feature_class":"S","feature_code":"HTL","country_code":"AW","admin1_code":"00","dem":6,"timezone":"America/Aruba","modification_date":"0001-01-01T00:00:00Z"},{"geoname_id":6502815,"name":"Aruba Marriott Resort \u0026 Stellaris Casino","ascii_name":"Aruba Marriott Resort \u0026 Stellaris Casino","alternate_names":"","latitude":"12.5999","longitude":"-70.045","feature_class":"S","feature_code":"HTL","country_code":"AW","admin1_code":"00","dem":5,"timezone":"America/Aruba","modification_date":"0001-01-01T00:00:00Z"},{"geoname_id":6507704,"name":"Occidental Grand Aruba","ascii_name":"OCCIDENTAL GRAND ARUBA","alternate_names":"","latitude":"12.5676","longitude":"-70.0406","feature_class":"S","feature_code":"HTL","country_code":"AW","admin1_code":"00","dem":5,"timezone":"America/Aruba","modification_date":"0001-01-01T00:00:00Z"},{"geoname_id":6507927,"name":"Divi Aruba Phoenix","ascii_name":"DIVI ARUBA PHOENIX","alternate_names":"","latitude":"12.5676","longitude":"-70.0406","feature_class":"S","feature_code":"HTL","country_code":"AW","admin1_code":"00","dem":5,"timezone":"America/Aruba","modification_date":"0001-01-01T00:00:00Z"},{"geoname_id":6512468,"name":"Coconut Inn","ascii_name":"COCONUT INN","alternate_names":"","latitude":"12.5273","longitude":"-70.0337","feature_class":"S","feature_code":"HTL","country_code":"AW","admin1_code":"00","dem":15,"timezone":"America/Aruba","modification_date":"0001-01-01T00:00:00Z"},{"geoname_id":6513147,"name":"Golden Tulip Bucuti Beach Resor","ascii_name":"GOLDEN TULIP BUCUTI BEACH RESOR","alternate_names":"","latitude":"12.5382","longitude":"-70.0515","feature_class":"S","feature_code":"HTL","country_code":"AW","admin1_code":"00","dem":5,"timezone":"America/Aruba","modification_date":"0001-01-01T00:00:00Z"},{"geoname_id":6516765,"name":"Amsterdam Manor Beach","ascii_name":"AMSTERDAM MANOR BEACH","alternate_names":"","latitude":"12.5382","longitude":"-70.0515","feature_class":"S","feature_code":"HTL","country_code":"AW","admin1_code":"00","dem":5,"timezone":"America/Aruba","modification_date":"0001-01-01T00:00:00Z"},{"geoname_id":6528175,"name":"Marriott Aruba Resort","ascii_name":"MARRIOTT ARUBA RESORT","alternate_names":"","latitude":"12.5676","longitude":"-70.0406","feature_class":"S","feature_code":"HTL","country_code":"AW","admin1_code":"00","dem":5,"timezone":"America/Aruba","modification_date":"0001-01-01T00:00:00Z"},{"geoname_id":6528722,"name":"Marriott Vac Clb Aruba Surf C","ascii_name":"MARRIOTT VAC CLB ARUBA SURF C","alternate_names":"","latitude":"12.5676","longitude":"-70.0406","feature_class":"S","feature_code":"HTL","country_code":"AW","admin1_code":"00","dem":5,"timezone":"America/Aruba","modification_date":"0001-01-01T00:00:00Z"},{"geoname_id":6545289,"name":"Renaissance Island","ascii_name":"Renaissance Island","alternate_names":"","latitude":"12.50087","longitude":"-70.02877","feature_class":"T","feature_code":"ISL","country_code":"AW","dem":-9999,"timezone":"America/Aruba","modification_date":"0001-01-01T00:00:00Z"},{"geoname_id":6545290,"name":"Iguana Beach","ascii_name":"Iguana Beach","alternate_names":"","latitude":"12.50036","longitude":"-70.02834","feature_class":"T","feature_code":"BCH","country_code":"AW","dem":-9999,"timezone":"America/Aruba","modification_date":"0001-01-01T00:00:00Z"},{"geoname_id":6545291,"name":"Flamingo Beach","ascii_name":"Flamingo Beach","alternate_names":"","latitude":"12.50127","longitude":"-70.02953","feature_class":"T","feature_code":"BCH","country_code":"AW","dem":-9999,"timezone":"America/Aruba","modification_date":"0001-01-01T00:00:00Z"},{"geoname_id":6692446,"name":"Boegoeroei","ascii_name":"Boegoeroei","alternate_names":"","latitude":"12.55431","longitude":"-70.03012","feature_class":"P","feature_code":"PPL","country_code":"AW","dem":17,"timezone":"America/Aruba","modification_date":"0001-01-01T00:00:00Z"},{"geoname_id":6951580,"name":"amsterdam manor beach resort","ascii_name":"amsterdam manor beach resort","alternate_names":"","latitude":"12.52507","longitude":"-70.03097","feature_class":"S","feature_code":"HTL","country_code":"AW","dem":8,"timezone":"America/Aruba","modification_date":"0001-01-01T00:00:00Z"},{"geoname_id":6951583,"name":"aruba ocean club","ascii_name":"aruba ocean club","alternate_names":"","latitude":"12.5742","longitude":"-70.0457","feature_class":"S","feature_code":"HTL","country_code":"AW","dem":5,"timezone":"America/Aruba","modification_date":"0001-01-01T00:00:00Z"},{"geoname_id":6951584,"name":"aruba surf club","ascii_name":"aruba surf club","alternate_names":"","latitude":"12.61655","longitude":"-70.0526","feature_class":"S","feature_code":"HTL","country_code":"AW","dem":11,"timezone":"America/Aruba","modification_date":"0001-01-01T00:00:00Z"},{"geoname_id":6951585,"name":"aruban resort casino at eagle beach","ascii_name":"aruban resort casino at eagle beach","alternate_names":"","latitude":"12.57333","longitude":"-70.0423","feature_class":"S","feature_code":"HTL","country_code":"AW","dem":6,"timezone":"America/Aruba","modification_date":"0001-01-01T00:00:00Z"},{"geoname_id":6951586,"name":"divi aruba beach resort","ascii_name":"divi aruba beach resort","alternate_names":"","latitude":"12.55758","longitude":"-70.04265","feature_class":"S","feature_code":"HTL","country_code":"AW","dem":8,"timezone":"America/Aruba","modification_date":"0001-01-01T00:00:00Z"},{"geoname_id":6951593,"name":"holiday inn sunspree aruba","ascii_name":"holiday inn sunspree aruba","alternate_names":"","latitude":"12.5754","longitude":"-70.04511","feature_class":"S","feature_code":"HTL","country_code":"AW","dem":11,"timezone":"America/Aruba","modification_date":"0001-01-01T00:00:00Z"},{"geoname_id":6951596,"name":"tamarijn aruba beach","ascii_name":"tamarijn aruba beach","alternate_names":"","latitude":"12.5217","longitude":"-70.03346","feature_class":"S","feature_code":"HTL","country_code":"AW","dem":8,"timezone":"America/Aruba","modification_date":"0001-01-01T00:00:00Z"},{"geoname_id":6951597,"name":"the mill resort n suites","ascii_name":"the mill resort n suites","alternate_names":"","latitude":"12.52675","longitude":"-70.02926","feature_class":"S","feature_code":"HTL","country_code":"AW","dem":11,"timezone":"America/Aruba","modification_date":"0001-01-01T00:00:00Z"},{"geoname_id":6951602,"name":"aruba phoenix beach resort","ascii_name":"aruba phoenix beach resort","alternate_names":"","latitude":"12.50788","longitude":"-69.97409","feature_class":"S","feature_code":"HTL","country_code":"AW","dem":51,"timezone":"America/Aruba","modification_date":"0001-01-01T00:00:00Z"},{"geoname_id":6951603,"name":"boardwalk boutique hotel aruba","ascii_name":"boardwalk boutique hotel aruba","alternate_names":"","latitude":"12.50788","longitude":"-69.97409","feature_class":"S","feature_code":"HTL","country_code":"AW","dem":51,"timezone":"America/Aruba","modification_date":"0001-01-01T00:00:00Z"},{"geoname_id":6951604,"name":"divi dutch village resort","ascii_name":"divi dutch village resort","alternate_names":"","latitude":"12.5497","longitude":"-70.05689","feature_class":"S","feature_code":"HTL","country_code":"AW","dem":5,"timezone":"America/Aruba","modification_date":"0001-01-01T00:00:00Z"},{"geoname_id":6951605,"name":"divi tamarijn aruba","ascii_name":"divi tamarijn aruba","alternate_names":"","latitude":"12.50788","longitude":"-69.97409","feature_class":"S","feature_code":"HTL","country_code":"AW","dem":51,"timezone":"America/Aruba","modification_date":"0001-01-01T00:00:00Z"},{"geoname_id":6951606,"name":"Ocean 105","ascii_name":"Ocean 105","alternate_names":"","latitude":"12.50788","longitude":"-69.97409","feature_class":"S","feature_code":"HTL","country_code":"AW","dem":51,"timezone":"America/Aruba","modification_date":"0001-01-01T00:00:00Z"},{"geoname_id":6951607,"name":"renaissance aruba beach resort casino","ascii_name":"renaissance aruba beach resort casino","alternate_names":"","latitude":"12.50788","longitude":"-69.97409","feature_class":"S","feature_code":"HTL","country_code":"AW","dem":51,"timezone":"America/Aruba","modification_date":"0001-01-01T00:00:00Z"},{"geoname_id":6951608,"name":"talk of the town hotel beach club","ascii_name":"talk of the town hotel beach club","alternate_names":"","latitude":"12.50788","longitude":"-69.97409","feature_class":"S","feature_code":"HTL","country_code":"AW","dem":51,"timezone":"America/Aruba","modification_date":"0001-01-01T00:00:00Z"},{"geoname_id":7115430,"name":"Dr. H.E. Oduber Hospital","ascii_name":"Dr. H.E. Oduber Hospital","alternate_names":"","latitude":"12.54229","longitude":"-70.05799","feature_class":"S","feature_code":"HSP","country_code":"AW","dem":7,"timezone":"America/Aruba","modification_date":"0001-01-01T00:00:00Z"},{"geoname_id":7283234,"name":"Manchebo Beach","ascii_name":"Manchebo Beach","alternate_names":"","latitude":"12.54024","longitude":"-70.06342","feature_class":"T","feature_code":"BCH","country_code":"AW","admin1_code":"00","dem":4,"timezone":"America/Aruba","modification_date":"0001-01-01T00:00:00Z"},{"geoname_id":9179507,"name":"Malmok","ascii_name":"Malmok","alternate_names":"","latitude":"12.60087","longitude":"-70.05064","feature_class":"P","feature_code":"PPL","country_code":"AW","dem":9,"timezone":"America/Aruba","modification_date":"0001-01-01T00:00:00Z"},{"geoname_id":9558336,"name":"Flamboyant (Saint Martin Orient Bay)","ascii_name":"Flamboyant (Saint Martin Orient Bay)","alternate_names":"","latitude":"12.43453","longitude":"-69.90661","feature_class":"S","feature_code":"HTL","country_code":"AW","dem":11,"timezone":"America/Aruba","modification_date":"0001-01-01T00:00:00Z"},{"geoname_id":9957912,"name":"Holiday Inn Sunspree Resort Aruba Beach Resort And Casino","ascii_name":"Holiday Inn Sunspree Resort Aruba Beach Resort And Casino","alternate_names":"","latitude":"12.5729","longitude":"-70.0417","feature_class":"S","feature_code":"HTL","country_code":"AW","dem":5,"timezone":"America/Aruba","modification_date":"0001-01-01T00:00:00Z"},{"geoname_id":9958953,"name":"Mill Resort \u0026 Suites Aruba","ascii_name":"Mill Resort \u0026 Suites Aruba","alternate_names":"","latitude":"12.52675","longitude":"-70.02926","feature_class":"S","feature_code":"HTL","country_code":"AW","dem":11,"timezone":"America/Aruba","modification_date":"0001-01-01T00:00:00Z"},{"geoname_id":9962781,"name":"Divi Aruba Phoenix Beach Resort","ascii_name":"Divi Aruba Phoenix Beach Resort","alternate_names":"","latitude":"12.56495","longitude":"-70.04986","feature_class":"S","feature_code":"HTL","country_code":"AW","dem":5,"timezone":"America/Aruba","modification_date":"0001-01-01T00:00:00Z"},{"geoname_id":9962783,"name":"Hotel Riu Palace Aruba","ascii_name":"Hotel Riu Palace Aruba","alternate_names":"","latitude":"12.56651","longitude":"-70.04753","feature_class":"S","feature_code":"HTL","country_code":"AW","dem":9,"timezone":"America/Aruba","modification_date":"0001-01-01T00:00:00Z"},{"geoname_id":9962784,"name":"Renaissance Aruba Beach Resort \u0026 Casino","ascii_name":"Renaissance Aruba Beach Resort \u0026 Casino","alternate_names":"","latitude":"12.53231","longitude":"-70.03385","feature_class":"S","feature_code":"HTL","country_code":"AW","dem":12,"timezone":"America/Aruba","modification_date":"0001-01-01T00:00:00Z"},{"geoname_id":9962785,"name":"Tropicana Aruba Resort \u0026 Casino","ascii_name":"Tropicana Aruba Resort \u0026 Casino","alternate_names":"","latitude":"12.57333","longitude":"-70.0423","feature_class":"S","feature_code":"HTL","country_code":"AW","dem":6,"timezone":"America/Aruba","modification_date":"0001-01-01T00:00:00Z"},{"geoname_id":9962786,"name":"Divi Village Golf \u0026 Beach Resort","ascii_name":"Divi Village Golf \u0026 Beach Resort","alternate_names":"","latitude":"12.5413","longitude":"-70.0431","feature_class":"S","feature_code":"HTL","country_code":"AW","dem":12,"timezone":"America/Aruba","modification_date":"0001-01-01T00:00:00Z"},{"geoname_id":9971438,"name":"Occidental Grand Aruba Resort","ascii_name":"Occidental Grand Aruba Resort","alternate_names":"","latitude":"12.57065","longitude":"-70.04555","feature_class":"S","feature_code":"HTL","country_code":"AW","dem":9,"timezone":"America/Aruba","modification_date":"0001-01-01T00:00:00Z"},{"geoname_id":10100296,"name":"Boardwalk Boutique Hotel Aruba","ascii_name":"Boardwalk Boutique Hotel Aruba","alternate_names":"","latitude":"12.58266","longitude":"-70.04226","feature_class":"S","feature_code":"HTL","country_code":"AW","dem":6,"timezone":"America/Aruba","modification_date":"0001-01-01T00:00:00Z"},{"geoname_id":10105995,"name":"Blue Residences Aruba","ascii_name":"Blue Residences Aruba","alternate_names":"","latitude":"12.5605","longitude":"-70.05432","feature_class":"S","feature_code":"HTL","country_code":"AW","dem":3,"timezone":"America/Aruba","modification_date":"0001-01-01T00:00:00Z"},{"geoname_id":10106919,"name":"Hotel Riu Palace Antillas","ascii_name":"Hotel Riu Palace Antillas","alternate_names":"","latitude":"12.5652","longitude":"-70.04844","feature_class":"S","feature_code":"HTL","country_code":"AW","admin1_code":"00","dem":11,"timezone":"America/Aruba","modification_date":"0001-01-01T00:00:00Z"},{"geoname_id":10110947,"name":"Ritz Carlton Aruba","ascii_name":"Ritz Carlton Aruba","alternate_names":"","latitude":"12.5828","longitude":"-70.04398","feature_class":"S","feature_code":"HTL","country_code":"AW","dem":6,"timezone":"America/Aruba","modification_date":"0001-01-01T00:00:00Z"},{"geoname_id":10112375,"name":"Oceana Penthouse","ascii_name":"Oceana Penthouse","alternate_names":"","latitude":"12.53279","longitude":"-70.0491","feature_class":"S","feature_code":"HTL","country_code":"AW","dem":6,"timezone":"America/Aruba","modification_date":"0001-01-01T00:00:00Z"},{"geoname_id":10112376,"name":"Oceana Ocean View","ascii_name":"Oceana Ocean View","alternate_names":"","latitude":"12.53279","longitude":"-70.0491","feature_class":"S","feature_code":"HTL","country_code":"AW","dem":6,"timezone":"America/Aruba","modification_date":"0001-01-01T00:00:00Z"},{"geoname_id":10112377,"name":"Sunset Beach Resort","ascii_name":"Sunset Beach Resort","alternate_names":"","latitude":"12.53282","longitude":"-70.04935","feature_class":"S","feature_code":"HTL","country_code":"AW","dem":6,"timezone":"America/Aruba","modification_date":"0001-01-01T00:00:00Z"},{"geoname_id":10112378,"name":"Oceana Beach Garden","ascii_name":"Oceana Beach Garden","alternate_names":"","latitude":"12.51248","longitude":"-70.03031","feature_class":"S","feature_code":"HTL","country_code":"AW","dem":11,"timezone":"America/Aruba","modification_date":"0001-01-01T00:00:00Z"},{"geoname_id":10115339,"name":"Aruba Harmony Apartments","ascii_name":"Aruba Harmony Apartments","alternate_names":"","latitude":"12.53322","longitude":"-70.02918","feature_class":"S","feature_code":"HTL","country_code":"AW","dem":24,"timezone":"America/Aruba","modification_date":"0001-01-01T00:00:00Z"},{"geoname_id":10121324,"name":"Manchebo Beach Resort \u0026 Spa","ascii_name":"Manchebo Beach Resort \u0026 Spa","alternate_names":"","latitude":"12.54117","longitude":"-70.06255","feature_class":"S","feature_code":"HTL","country_code":"AW","dem":7,"timezone":"America/Aruba","modification_date":"0001-01-01T00:00:00Z"},{"geoname_id":10128077,"name":"Talk Of The Town Hotel And Beach Club","ascii_name":"Talk Of The Town Hotel And Beach Club","alternate_names":"","latitude":"12.50974","longitude":"-70.02784","feature_class":"S","feature_code":"HTL","country_code":"AW","dem":6,"timezone":"America/Aruba","modification_date":"0001-01-01T00:00:00Z"},{"geoname_id":10128232,"name":"The Mill Resort \u0026 Suites","ascii_name":"The Mill Resort \u0026 Suites","alternate_names":"","latitude":"12.56373","longitude":"-70.04594","feature_class":"S","feature_code":"HTL","country_code":"AW","dem":7,"timezone":"America/Aruba","modification_date":"0001-01-01T00:00:00Z"},{"geoname_id":10128345,"name":"Brickell Bay Beach Club \u0026 Spa Boutique Hotel","ascii_name":"Brickell Bay Beach Club \u0026 Spa Boutique Hotel","alternate_names":"","latitude":"12.57011","longitude":"-70.0444","feature_class":"S","feature_code":"HTL","country_code":"AW","dem":7,"timezone":"America/Aruba","modification_date":"0001-01-01T00:00:00Z"},{"geoname_id":10174504,"name":"Royal Club Grand Aruba","ascii_name":"Royal Club Grand Aruba","alternate_names":"","latitude":"12.57036","longitude":"-70.04599","feature_class":"S","feature_code":"HTL","country_code":"AW","dem":12,"timezone":"America/Aruba","modification_date":"0001-01-01T00:00:00Z"},{"geoname_id":10229607,"name":"Talk Of The Town Hotel \u0026 Beach Club","ascii_name":"Talk Of The Town Hotel \u0026 Beach Club","alternate_names":"","latitude":"12.50955","longitude":"-70.02806","feature_class":"S","feature_code":"HTL","country_code":"AW","dem":7,"timezone":"America/Aruba","modification_date":"0001-01-01T00:00:00Z"},{"geoname_id":10236981,"name":"Tierra Del Sol Resort And Golf","ascii_name":"Tierra Del Sol Resort And Golf","alternate_names":"","latitude":"12.60512","longitude":"-70.04178","feature_class":"S","feature_code":"HTL","country_code":"AW","dem":26,"timezone":"America/Aruba","modification_date":"0001-01-01T00:00:00Z"},{"geoname_id":10237917,"name":"Marriott'S Aruba Surf Club","ascii_name":"Marriott'S Aruba Surf Club","alternate_names":"","latitude":"12.57758","longitude":"-70.04205","feature_class":"S","feature_code":"HTL","country_code":"AW","dem":6,"timezone":"America/Aruba","modification_date":"0001-01-01T00:00:00Z"},{"geoname_id":10237919,"name":"Marriott'S Aruba Ocean Club","ascii_name":"Marriott'S Aruba Ocean Club","alternate_names":"","latitude":"12.57985","longitude":"-70.04288","feature_class":"S","feature_code":"HTL","country_code":"AW","dem":9,"timezone":"America/Aruba","modification_date":"0001-01-01T00:00:00Z"},{"geoname_id":10238047,"name":"Paradera Park","ascii_name":"Paradera Park","alternate_names":"","latitude":"12.54209","longitude":"-70.00258","feature_class":"S","feature_code":"HTL","country_code":"AW","dem":50,"timezone":"America/Aruba","modification_date":"0001-01-01T00:00:00Z"},{"geoname_id":10247508,"name":"Divi Village All Inclusive","ascii_name":"Divi Village All Inclusive","alternate_names":"","latitude":"12.53826","longitude":"-70.06057","feature_class":"S","feature_code":"HTL","country_code":"AW","dem":7,"timezone":"America/Aruba","modification_date":"0001-01-01T00:00:00Z"},{"geoname_id":10280558,"name":"Ayo Rock Formation","ascii_name":"Ayo Rock Formation","alternate_names":"","latitude":"12.53184","longitude":"-69.97169","feature_class":"L","feature_code":"AMUS","country_code":"AW","dem":47,"timezone":"America/Aruba","modification_date":"0001-01-01T00:00:00Z"},{"geoname_id":10280559,"name":"Casibari Rock Formations","ascii_name":"Casibari Rock Formations","alternate_names":"","latitude":"12.5311","longitude":"-69.99642","feature_class":"S","feature_code":"GDN","country_code":"AW","dem":44,"timezone":"America/Aruba","modification_date":"0001-01-01T00:00:00Z"},{"geoname_id":10280560,"name":"Fort Zoutman","ascii_name":"Fort Zoutman","alternate_names":"","latitude":"12.51778","longitude":"-70.03554","feature_class":"S","feature_code":"MUS","country_code":"AW","dem":6,"timezone":"America/Aruba","modification_date":"0001-01-01T00:00:00Z"},{"geoname_id":10280561,"name":"Bushiri Karting Speedway","ascii_name":"Bushiri Karting Speedway","alternate_names":"","latitude":"12.53657","longitude":"-70.0487","feature_class":"L","feature_code":"AMUS","country_code":"AW","dem":13,"timezone":"America/Aruba","modification_date":"0001-01-01T00:00:00Z"},{"geoname_id":10280562,"name":"Fantastic Gardens Aruba","ascii_name":"Fantastic Gardens Aruba","alternate_names":"","latitude":"12.54058","longitude":"-70.04566","feature_class":"S","feature_code":"GDN","country_code":"AW","dem":9,"timezone":"America/Aruba","modification_date":"0001-01-01T00:00:00Z"},{"geoname_id":10280563,"name":"Archaeological Museum of Aruba","ascii_name":"Archaeological Museum of Aruba","alternate_names":"","latitude":"12.52096","longitude":"-70.03809","feature_class":"S","feature_code":"MUS","country_code":"AW","dem":8,"timezone":"America/Aruba","modification_date":"0001-01-01T00:00:00Z"},{"geoname_id":10280564,"name":"Renaissance Mall","ascii_name":"Renaissance Mall","alternate_names":"","latitude":"12.51907","longitude":"-70.03807","feature_class":"S","feature_code":"MALL","country_code":"AW","dem":11,"timezone":"America/Aruba","modification_date":"0001-01-01T00:00:00Z"},{"geoname_id":10280565,"name":"Royal Plaza Mall","ascii_name":"Royal Plaza Mall","alternate_names":"","latitude":"12.52012","longitude":"-70.03967","feature_class":"S","feature_code":"MALL","country_code":"AW","dem":6,"timezone":"America/Aruba","modification_date":"0001-01-01T00:00:00Z"},{"geoname_id":10280566,"name":"Trinidad Stadium","ascii_name":"Trinidad Stadium","alternate_names":"","latitude":"12.51294","longitude":"-70.02385","feature_class":"S","feature_code":"STDM","country_code":"AW","dem":11,"timezone":"America/Aruba","modification_date":"0001-01-01T00:00:00Z"},{"geoname_id":10280567,"name":"Kooyman Megastore","ascii_name":"Kooyman Megastore","alternate_names":"","latitude":"12.51488","longitude":"-70.01151","feature_class":"S","feature_code":"MALL","country_code":"AW","dem":19,"timezone":"America/Aruba","modification_date":"0001-01-01T00:00:00Z"},{"geoname_id":10280568,"name":"PriceSmart","ascii_name":"PriceSmart","alternate_names":"","latitude":"12.50599","longitude":"-70.0151","feature_class":"S","feature_code":"MALL","country_code":"AW","dem":18,"timezone":"America/Aruba","modification_date":"0001-01-01T00:00:00Z"},{"geoname_id":10280569,"name":"Joe Laveist Sport Park.","ascii_name":"Joe Laveist Sport Park.","alternate_names":"","latitude":"12.43838","longitude":"-69.90806","feature_class":"S","feature_code":"ATHF","country_code":"AW","dem":19,"timezone":"America/Aruba","modification_date":"0001-01-01T00:00:00Z"},{"geoname_id":10280570,"name":"Seroe Colorado Rest Area","ascii_name":"Seroe Colorado Rest Area","alternate_names":"","latitude":"12.41865","longitude":"-69.86896","feature_class":"S","feature_code":"MNMT","country_code":"AW","dem":38,"timezone":"America/Aruba","modification_date":"0001-01-01T00:00:00Z"},{"geoname_id":10280571,"name":"De Kustbatterij Juwana Morto","ascii_name":"De Kustbatterij Juwana Morto","alternate_names":"","latitude":"12.42412","longitude":"-69.87608","feature_class":"S","feature_code":"HSTS","country_code":"AW","dem":34,"timezone":"America/Aruba","modification_date":"0001-01-01T00:00:00Z"},