[{"geoname_id":434491,"name":"Stora Lökskär","ascii_name":"Stora Lokskar","alternate_names":"Stora Lokskar,Stora Lökskär","latitude":"59.98056","longitude":"20.02684","feature_class":"T","feature_code":"ISL","country_code":"AX","admin1_code":"01","dem":6,"timezone":"Europe/Mariehamn","modification_date":"0001-01-01T00:00:00Z"},{"geoname_id":434513,"name":"Haviskobben","ascii_name":"Haviskobben","alternate_names":"","latitude":"59.94296","longitude":"20.37784","feature_class":"T","feature_code":"RKS","country_code":"AX","admin1_code":"01","dem":3,"timezone":"Europe/Mariehamn","modification_date":"0001-01-01T00:00:00Z"},{"geoname_id":434514,"name":"Gadden","ascii_name":"Gadden","alternate_names":"","latitude":"59.93569","longitude":"20.36537","feature_class":"T","feature_code":"RK","country_code":"AX","admin1_code":"01","dem":3,"timezone":"Europe/Mariehamn","modification_date":"0001-01-01T00:00:00Z"},{"geoname_id":434515,"name":"Österrant","ascii_name":"OEsterrant","alternate_names":"","latitude":"59.9218","longitude":"20.49373","feature_class":"T","feature_code":"ISL","country_code":"AX","admin1_code":"062","dem":5,"timezone":"Europe/Mariehamn","modification_date":"0001-01-01T00:00:00Z"},{"geoname_id":434516,"name":"Rantkobben","ascii_name":"Rantkobben","alternate_names":"","latitude":"59.9283","longitude":"20.49153","feature_class":"T","feature_code":"RK","country_code":"AX","admin1_code":"01","dem":-9999,"timezone":"Europe/Mariehamn","modification_date":"0001-01-01T00:00:00Z"},{"geoname_id":434517,"name":"Skepparskär","ascii_name":"Skepparskaer","alternate_names":"","latitude":"59.93804","longitude":"20.56094","feature_class":"T","feature_code":"ISL","country_code":"AX","admin1_code":"062","dem":5,"timezone":"Europe/Mariehamn","modification_date":"0001-01-01T00:00:00Z"},{"geoname_id":434610,"name":"Södra Rönnören","ascii_name":"Sodra Ronnoren","alternate_names":"","latitude":"60.2745","longitude":"20.46142","feature_class":"T","feature_code":"ISL","country_code":"AX","admin1_code":"01","dem":-9999,"timezone":"Europe/Mariehamn","modification_date":"0001-01-01T00:00:00Z"},{"geoname_id":630678,"name":"Yxskär","ascii_name":"Yxskaer","alternate_names":"","latitude":"60.40575","longitude":"20.61106","feature_class":"T","feature_code":"ISL","country_code":"AX","admin1_code":"295","dem":10,"timezone":"Europe/Mariehamn","modification_date":"0001-01-01T00:00:00Z"},{"geoname_id":630681,"name":"Yttre Ljusskär","ascii_name":"Yttre Ljusskaer","alternate_names":"","latitude":"59.91518","longitude":"20.40236","feature_class":"T","feature_code":"ISL","country_code":"AX","admin1_code":"062","dem":6,"timezone":"Europe/Mariehamn","modification_date":"0001-01-01T00:00:00Z"},{"geoname_id":630682,"name":"Yttre Gyllenbådan","ascii_name":"Yttre Gyllenbadan","alternate_names":"Yttre Gyllenbadan,Yttre Gyllenbådan","latitude":"60.51667","longitude":"20.51667","feature_class":"T","feature_code":"RKS","country_code":"AX","admin1_code":"01","dem":-9999,"timezone":"Europe/Mariehamn","modification_date":"0001-01-01T00:00:00Z"},{"geoname_id":630683,"name":"Yttre Bredan","ascii_name":"Yttre Bredan","alternate_names":"Bredan,Breden","latitude":"60.59303","longitude":"20.68338","feature_class":"T","feature_code":"ISLS","country_code":"AX","cc2":"FI","admin1_code":"035","dem":-9999,"timezone":"Europe/Mariehamn","modification_date":"0001-01-01T00:00:00Z"},{"geoname_id":630691,"name":"Ytterstbergsbrott","ascii_name":"Ytterstbergsbrott","alternate_names":"Ytterstbergsbrott,Yttersthergsbrott","latitude":"60.61667","longitude":"20.55","feature_class":"H","feature_code":"SHOL","country_code":"AX","admin1_code":"01","dem":-9999,"timezone":"Europe/Mariehamn","modification_date":"0001-01-01T00:00:00Z"},{"geoname_id":630692,"name":"Ytterstberg","ascii_name":"Ytterstberg","alternate_names":"Yttersberg,Ytterstberg","latitude":"60.57471","longitude":"20.53132","feature_class":"T","feature_code":"RK","country_code":"AX","admin1_code":"01","dem":-9999,"timezone":"Europe/Mariehamn","modification_date":"0001-01-01T00:00:00Z"},{"geoname_id":630694,"name":"Ytterskär","ascii_name":"Ytterskaer","alternate_names":"","latitude":"60.46632","longitude":"20.76172","feature_class":"T","feature_code":"ISL","country_code":"AX","admin1_code":"035","dem":-9999,"timezone":"Europe/Mariehamn","modification_date":"0001-01-01T00:00:00Z"},{"geoname_id":630697,"name":"Ytterön","ascii_name":"Ytteroen","alternate_names":"Yttero,Ytterö","latitude":"60.21402","longitude":"20.84771","feature_class":"T","feature_code":"ISL","country_code":"AX","cc2":"FI","admin1_code":"295","dem":-9999,"timezone":"Europe/Mariehamn","modification_date":"0001-01-01T00:00:00Z"},{"geoname_id":630700,"name":"Yttersta Långskär","ascii_name":"Yttersta Langskaer","alternate_names":"Langskar,Långskär,Ytterst Langskar,Ytterst Långskär,Yttersta Langskar,Yttersta Långskär","latitude":"60.4801","longitude":"20.9766","feature_class":"T","feature_code":"ISL","country_code":"AX","cc2":"FI","admin1_code":"213","admin2_code":"035","dem":-9999,"timezone":"Europe/Mariehamn","modification_date":"0001-01-01T00:00:00Z"},{"geoname_id":630705,"name":"Ytterby","ascii_name":"Ytterby","alternate_names":"Itterby,Ytterby","latitude":"60.16667","longitude":"20.01667","feature_class":"P","feature_code":"PPL","country_code":"AX","admin1_code":"212","admin2_code":"170","dem":-9999,"timezone":"Europe/Mariehamn","modification_date":"0001-01-01T00:00:00Z"},{"geoname_id":631289,"name":"Vivastby","ascii_name":"Vivastby","alternate_names":"Vivastby,Vivaste,Vivasteby","latitude":"60.23333","longitude":"20.18333","feature_class":"S","feature_code":"HSE","country_code":"AX","admin1_code":"212","admin2_code":"771","dem":6,"timezone":"Europe/Mariehamn","modification_date":"0001-01-01T00:00:00Z"},{"geoname_id":631290,"name":"Vivarskär","ascii_name":"Vivarskaer","alternate_names":"","latitude":"59.91761","longitude":"20.09767","feature_class":"T","feature_code":"ISL","country_code":"AX","admin1_code":"062","dem":8,"timezone":"Europe/Mariehamn","modification_date":"0001-01-01T00:00:00Z"},{"geoname_id":631322,"name":"Vitklobbarna","ascii_name":"Vitklobbarna","alternate_names":"Vitklubbarna,Vitkobbarna","latitude":"60.63951","longitude":"20.82467","feature_class":"T","feature_code":"ISLS","country_code":"AX","cc2":"FI","admin1_code":"035","dem":-9999,"timezone":"Europe/Mariehamn","modification_date":"0001-01-01T00:00:00Z"},{"geoname_id":631334,"name":"Vitfågelskär","ascii_name":"Vitfagelskaer","alternate_names":"","latitude":"59.85602","longitude":"20.58166","feature_class":"T","feature_code":"ISL","country_code":"AX","admin1_code":"062","dem":6,"timezone":"Europe/Mariehamn","modification_date":"0001-01-01T00:00:00Z"},{"geoname_id":631445,"name":"Vinkelskär","ascii_name":"Vinkelskaer","alternate_names":"","latitude":"60.46107","longitude":"20.33641","feature_class":"T","feature_code":"ISLS","country_code":"AX","admin1_code":"736","dem":-9999,"timezone":"Europe/Mariehamn","modification_date":"0001-01-01T00:00:00Z"},{"geoname_id":631521,"name":"Viggskär","ascii_name":"Viggskaer","alternate_names":"Vikskar,Vikskär","latitude":"60.41244","longitude":"20.3105","feature_class":"T","feature_code":"ISL","country_code":"AX","cc2":"FI","admin1_code":"941","dem":-9999,"timezone":"Europe/Mariehamn","modification_date":"0001-01-01T00:00:00Z"},{"geoname_id":631534,"name":"Vikarskären","ascii_name":"Vikarskaeren","alternate_names":"Vikarskar","latitude":"60.40606","longitude":"20.48606","feature_class":"T","feature_code":"ISLS","country_code":"AX","admin1_code":"941","dem":-9999,"timezone":"Europe/Mariehamn","modification_date":"0001-01-01T00:00:00Z"},{"geoname_id":631535,"name":"Vikarskär","ascii_name":"Vikarskaer","alternate_names":"Storlandet,Vikarskaren,Vikarskären","latitude":"59.83297","longitude":"20.97678","feature_class":"T","feature_code":"ISLS","country_code":"AX","cc2":"FI","admin1_code":"318","dem":9,"timezone":"Europe/Mariehamn","modification_date":"0001-01-01T00:00:00Z"},{"geoname_id":631800,"name":"Vidskär","ascii_name":"Vidskaer","alternate_names":"","latitude":"59.93224","longitude":"20.53484","feature_class":"T","feature_code":"ISL","country_code":"AX","admin1_code":"062","dem":7,"timezone":"Europe/Mariehamn","modification_date":"0001-01-01T00:00:00Z"},{"geoname_id":631803,"name":"Vidland","ascii_name":"Vidland","alternate_names":"Vidlandet","latitude":"60.56204","longitude":"20.92202","feature_class":"T","feature_code":"ISL","country_code":"AX","cc2":"FI","admin1_code":"035","dem":-9999,"timezone":"Europe/Mariehamn","modification_date":"0001-01-01T00:00:00Z"},{"geoname_id":631809,"name":"Vibberholm","ascii_name":"Vibberholm","alternate_names":"","latitude":"60.24219","longitude":"20.30291","feature_class":"T","feature_code":"ISL","country_code":"AX","admin1_code":"941","dem":1,"timezone":"Europe/Mariehamn","modification_date":"0001-01-01T00:00:00Z"},{"geoname_id":631841,"name":"Vessingsboda","ascii_name":"Vessingsboda","alternate_names":"Vessingboda,Vessingsboda","latitude":"60.044","longitude":"20.17501","feature_class":"P","feature_code":"PPL","country_code":"AX","admin1_code":"212","admin2_code":"417","dem":9,"timezone":"Europe/Mariehamn","modification_date":"0001-01-01T00:00:00Z"},{"geoname_id":632179,"name":"Västra Mörskär","ascii_name":"Vastra Morskar","alternate_names":"Vaster Morskar,Vastra Morskar,Väster Mörskär,Västra Mörskär","latitude":"59.77874","longitude":"21.15161","feature_class":"T","feature_code":"ISL","country_code":"AX","admin1_code":"01","dem":6,"timezone":"Europe/Mariehamn","modification_date":"0001-01-01T00:00:00Z"},{"geoname_id":632180,"name":"Västra halvan","ascii_name":"Vastra halvan","alternate_names":"","latitude":"59.83333","longitude":"20.55","feature_class":"T","feature_code":"RKS","country_code":"AX","admin1_code":"01","dem":-9999,"timezone":"Europe/Mariehamn","modification_date":"0001-01-01T00:00:00Z"},{"geoname_id":632197,"name":"Västra Simskäla","ascii_name":"Vastra Simskala","alternate_names":"Vaster Simskala,Vastra Simskala,Vestra Simskela,Väster Simskäla,Västra Simskäla","latitude":"60.35","longitude":"20.31667","feature_class":"T","feature_code":"ISLX","country_code":"AX","admin1_code":"01","dem":9,"timezone":"Europe/Mariehamn","modification_date":"0001-01-01T00:00:00Z"},{"geoname_id":632199,"name":"Prästholmarna","ascii_name":"Praestholmarna","alternate_names":"Vaster Raset,Vesterraset,Väster Raset","latitude":"60.07059","longitude":"20.67681","feature_class":"T","feature_code":"ISL","country_code":"AX","cc2":"FI","admin1_code":"766","dem":-9999,"timezone":"Europe/Mariehamn","modification_date":"0001-01-01T00:00:00Z"},{"geoname_id":632200,"name":"Västerön","ascii_name":"Vasteron","alternate_names":"Vaesteroe,Vasteron,Vestero,Vesterö,Västerö,Västerön","latitude":"60.36787","longitude":"20.98103","feature_class":"T","feature_code":"ISL","country_code":"AX","admin1_code":"01","dem":-9999,"timezone":"Europe/Mariehamn","modification_date":"0001-01-01T00:00:00Z"},{"geoname_id":632204,"name":"Västerön","ascii_name":"Vaesteroen","alternate_names":"Vastero,Vastraon,Vestero,Vesteron,Vesterö,Vesterön,Västerö,Västraön","latitude":"60.04407","longitude":"20.73379","feature_class":"T","feature_code":"ISL","country_code":"AX","cc2":"FI","admin1_code":"766","dem":-9999,"timezone":"Europe/Mariehamn","modification_date":"0001-01-01T00:00:00Z"},{"geoname_id":632210,"name":"Västerhamnen","ascii_name":"Vasterhamnen","alternate_names":"Vaster Hamnskar,Vasterhamn,Väster Hamnskär,Västerhamn","latitude":"60.6156","longitude":"20.84553","feature_class":"T","feature_code":"ISL","country_code":"AX","cc2":"FI","admin1_code":"01","dem":-9999,"timezone":"Europe/Mariehamn","modification_date":"0001-01-01T00:00:00Z"},{"geoname_id":632212,"name":"Västerfjärden","ascii_name":"Vasterfjarden","alternate_names":"","latitude":"60.03333","longitude":"20.08333","feature_class":"H","feature_code":"CHN","country_code":"AX","admin1_code":"01","dem":-9999,"timezone":"Europe/Mariehamn","modification_date":"0001-01-01T00:00:00Z"},{"geoname_id":632219,"name":"Västeränga","ascii_name":"Vaesteraenga","alternate_names":"","latitude":"60.01914","longitude":"20.13435","feature_class":"P","feature_code":"PPLL","country_code":"AX","admin1_code":"212","admin2_code":"417","dem":9,"timezone":"Europe/Mariehamn","modification_date":"0001-01-01T00:00:00Z"},{"geoname_id":632405,"name":"Vargskär","ascii_name":"Vargskaer","alternate_names":"","latitude":"60.11892","longitude":"20.53514","feature_class":"T","feature_code":"ISLS","country_code":"AX","admin1_code":"062","dem":-9999,"timezone":"Europe/Mariehamn","modification_date":"0001-01-01T00:00:00Z"},{"geoname_id":632409,"name":"Vargatafjärden","ascii_name":"Vargatafjarden","alternate_names":"","latitude":"60.23327","longitude":"20.26846","feature_class":"H","feature_code":"SD","country_code":"AX","admin1_code":"01","dem":-9999,"timezone":"Europe/Mariehamn","modification_date":"0001-01-01T00:00:00Z"},{"geoname_id":632410,"name":"Vargata","ascii_name":"Vargata","alternate_names":"","latitude":"60.24424","longitude":"20.34439","feature_class":"P","feature_code":"PPLL","country_code":"AX","admin1_code":"213","admin2_code":"941","dem":13,"timezone":"Europe/Mariehamn","modification_date":"0001-01-01T00:00:00Z"},{"geoname_id":632421,"name":"Vårdö","ascii_name":"Vardoe","alternate_names":"","latitude":"60.25","longitude":"20.38333","feature_class":"P","feature_code":"PPLA2","country_code":"AX","cc2":"FI","admin1_code":"213","admin2_code":"941","population":411,"dem":10,"timezone":"Europe/Mariehamn","modification_date":"0001-01-01T00:00:00Z"},{"geoname_id":632423,"name":"Vårdö","ascii_name":"Vardo","alternate_names":"Vardo,Vardolandet,Vårdö,Vårdölandet","latitude":"60.25181","longitude":"20.37441","feature_class":"T","feature_code":"ISL","country_code":"AX","admin1_code":"01","dem":9,"timezone":"Europe/Mariehamn","modification_date":"0001-01-01T00:00:00Z"},{"geoname_id":632425,"name":"Vårdö","ascii_name":"Vardoe","alternate_names":"Varde,Vardo,Vardo Kommun,Vardoe,Vardoe vald,Vardon Kunta,Vardė,Vordjo,Vårdö,Vårdö Kommun,Vårdö vald,Vårdön Kunta,wa er de,Вордё,瓦爾德","latitude":"60.24675","longitude":"20.38176","feature_class":"A","feature_code":"ADM2","country_code":"AX","admin1_code":"213","admin2_code":"941","population":452,"dem":10,"timezone":"Europe/Mariehamn","modification_date":"0001-01-01T00:00:00Z"},{"geoname_id":632565,"name":"Vålö","ascii_name":"Valoe","alternate_names":"","latitude":"59.95","longitude":"21","feature_class":"P","feature_code":"PPL","country_code":"AX","admin1_code":"213","admin2_code":"318","dem":-9999,"timezone":"Europe/Mariehamn","modification_date":"0001-01-01T00:00:00Z"},{"geoname_id":632567,"name":"Vålö","ascii_name":"Valoe","alternate_names":"","latitude":"59.99015","longitude":"20.21951","feature_class":"T","feature_code":"ISL","country_code":"AX","admin1_code":"417","dem":11,"timezone":"Europe/Mariehamn","modification_date":"0001-01-01T00:00:00Z"},{"geoname_id":632958,"name":"Väderskär","ascii_name":"Vaederskaer","alternate_names":"Vaderskaren,Väderskären,Waderskar,Waderskaren,Waderskär,Waderskären","latitude":"60.4372","longitude":"20.38052","feature_class":"T","feature_code":"ISLS","country_code":"AX","cc2":"FI","admin1_code":"941","dem":-9999,"timezone":"Europe/Mariehamn","modification_date":"0001-01-01T00:00:00Z"},{"geoname_id":633398,"name":"Ulversö","ascii_name":"Ulversoe","alternate_names":"","latitude":"60.09885","longitude":"20.53923","feature_class":"P","feature_code":"PPL","country_code":"AX","admin1_code":"213","admin2_code":"062","dem":-9999,"timezone":"Europe/Mariehamn","modification_date":"0001-01-01T00:00:00Z"},{"geoname_id":633399,"name":"Ulversö","ascii_name":"Ulverso","alternate_names":"Ulfverso,Ulfversö,Ulvers,Ulverso,Ulversö","latitude":"60.10068","longitude":"20.54356","feature_class":"T","feature_code":"ISL","country_code":"AX","admin1_code":"01","dem":-9999,"timezone":"Europe/Mariehamn","modification_date":"0001-01-01T00:00:00Z"},{"geoname_id":633509,"name":"Ubbenholma","ascii_name":"Ubbenholma","alternate_names":"Obanholm,Ubbenholma,Öbanholm","latitude":"59.90607","longitude":"20.97581","feature_class":"T","feature_code":"ISL","country_code":"AX","cc2":"FI","admin1_code":"318","dem":14,"timezone":"Europe/Mariehamn","modification_date":"0001-01-01T00:00:00Z"},{"geoname_id":633510,"name":"Ubbenholmsfjärd","ascii_name":"Ubbenholmsfjard","alternate_names":"","latitude":"59.9","longitude":"21.06667","feature_class":"H","feature_code":"SD","country_code":"AX","admin1_code":"01","dem":-9999,"timezone":"Europe/Mariehamn","modification_date":"0001-01-01T00:00:00Z"},{"geoname_id":633984,"name":"Trätö","ascii_name":"Traetoe","alternate_names":"","latitude":"60.40567","longitude":"20.30344","feature_class":"T","feature_code":"ISL","country_code":"AX","admin1_code":"941","dem":-9999,"timezone":"Europe/Mariehamn","modification_date":"0001-01-01T00:00:00Z"},{"geoname_id":633987,"name":"Träskskär","ascii_name":"Traeskskaer","alternate_names":"","latitude":"59.99514","longitude":"20.85703","feature_class":"T","feature_code":"ISL","country_code":"AX","admin1_code":"318","dem":7,"timezone":"Europe/Mariehamn","modification_date":"0001-01-01T00:00:00Z"},{"geoname_id":633994,"name":"Träskholmarna","ascii_name":"Traskholmarna","alternate_names":"Traskholm,Traskholmar,Traskholmarna,Traskholmarne,Träskholm,Träskholmar,Träskholmarna,Träskholmarne","latitude":"60.19799","longitude":"20.79332","feature_class":"T","feature_code":"ISLS","country_code":"AX","admin1_code":"01","dem":-9999,"timezone":"Europe/Mariehamn","modification_date":"0001-01-01T00:00:00Z"},{"geoname_id":634002,"name":"Tranvik","ascii_name":"Tranvik","alternate_names":"","latitude":"60.20049","longitude":"20.14984","feature_class":"P","feature_code":"PPL","country_code":"AX","admin1_code":"212","admin2_code":"771","dem":10,"timezone":"Europe/Mariehamn","modification_date":"0001-01-01T00:00:00Z"},{"geoname_id":634042,"name":"Tosarby","ascii_name":"Tosarby","alternate_names":"Tosarby,Turserby","latitude":"60.21667","longitude":"20.1","feature_class":"P","feature_code":"PPLL","country_code":"AX","admin1_code":"212","admin2_code":"771","dem":23,"timezone":"Europe/Mariehamn","modification_date":"0001-01-01T00:00:00Z"},{"geoname_id":634065,"name":"Torsholma","ascii_name":"Torsholma","alternate_names":"Torsholma","latitude":"60.35642","longitude":"21.06551","feature_class":"P","feature_code":"PPL","country_code":"AX","admin1_code":"213","admin2_code":"035","dem":-9999,"timezone":"Europe/Helsinki","modification_date":"0001-01-01T00:00:00Z"},{"geoname_id":634066,"name":"Torsholma","ascii_name":"Torsholma","alternate_names":"Torsholm,Torsholma,Torsholme","latitude":"60.35366","longitude":"21.06627","feature_class":"T","feature_code":"ISL","country_code":"AX","admin1_code":"01","dem":-9999,"timezone":"Europe/Helsinki","modification_date":"0001-01-01T00:00:00Z"},{"geoname_id":634099,"name":"Torngrundet","ascii_name":"Torngrundet","alternate_names":"Torngrund,Torngrunden,Torngrundet","latitude":"59.98333","longitude":"20.76667","feature_class":"T","feature_code":"RK","country_code":"AX","admin1_code":"01","dem":-9999,"timezone":"Europe/Mariehamn","modification_date":"0001-01-01T00:00:00Z"},{"geoname_id":634335,"name":"Töftö","ascii_name":"Toeftoe","alternate_names":"","latitude":"60.20991","longitude":"20.29396","feature_class":"P","feature_code":"PPLL","country_code":"AX","admin1_code":"213","admin2_code":"941","dem":-9999,"timezone":"Europe/Mariehamn","modification_date":"0001-01-01T00:00:00Z"},{"geoname_id":634336,"name":"Töftö","ascii_name":"Tofto","alternate_names":"","latitude":"60.20709","longitude":"20.29668","feature_class":"T","feature_code":"ISLX","country_code":"AX","admin1_code":"01","dem":12,"timezone":"Europe/Mariehamn","modification_date":"0001-01-01T00:00:00Z"},{"geoname_id":634340,"name":"Toböle Träsk","ascii_name":"Tobole Trask","alternate_names":"Tobole Trask,Toboletrask,Toböle Träsk,Toböleträsk","latitude":"60.33333","longitude":"20.01667","feature_class":"H","feature_code":"LK","country_code":"AX","admin1_code":"01","dem":10,"timezone":"Europe/Mariehamn","modification_date":"0001-01-01T00:00:00Z"},{"geoname_id":634349,"name":"Tjurgrund","ascii_name":"Tjurgrund","alternate_names":"Churgrund,Tjurgrund,Tjurgrundet","latitude":"60.11032","longitude":"20.69636","feature_class":"T","feature_code":"ISL","country_code":"AX","admin1_code":"01","dem":1,"timezone":"Europe/Mariehamn","modification_date":"0001-01-01T00:00:00Z"},{"geoname_id":634394,"name":"Tingön","ascii_name":"Tingoen","alternate_names":"Tingo,Tingö","latitude":"60.18767","longitude":"20.06151","feature_class":"T","feature_code":"ISL","country_code":"AX","cc2":"FI","admin1_code":"771","dem":-9999,"timezone":"Europe/Mariehamn","modification_date":"0001-01-01T00:00:00Z"},{"geoname_id":634512,"name":"Tigrunden","ascii_name":"Tigrunden","alternate_names":"Tigrunden","latitude":"60.31225","longitude":"20.64176","feature_class":"T","feature_code":"RKS","country_code":"AX","admin1_code":"01","dem":-9999,"timezone":"Europe/Mariehamn","modification_date":"0001-01-01T00:00:00Z"},{"geoname_id":634959,"name":"Tängsöda","ascii_name":"Taengsoeda","alternate_names":"Tangsoda,Tengsoda,Tengsöda,Tängsöda","latitude":"60.29571","longitude":"20.14315","feature_class":"P","feature_code":"PPL","country_code":"AX","admin1_code":"212","admin2_code":"736","dem":31,"timezone":"Europe/Mariehamn","modification_date":"0001-01-01T00:00:00Z"},{"geoname_id":635389,"name":"Synderstö","ascii_name":"Synderstoe","alternate_names":"","latitude":"60.21535","longitude":"20.73296","feature_class":"T","feature_code":"ISL","country_code":"AX","admin1_code":"295","dem":-9999,"timezone":"Europe/Mariehamn","modification_date":"0001-01-01T00:00:00Z"},{"geoname_id":635390,"name":"Syndeskär","ascii_name":"Syndeskaer","alternate_names":"Synderskar,Synderskär,Syndersskar,Syndersskär","latitude":"60.11658","longitude":"20.72285","feature_class":"T","feature_code":"ISL","country_code":"AX","cc2":"FI","admin1_code":"766","dem":-9999,"timezone":"Europe/Mariehamn","modification_date":"0001-01-01T00:00:00Z"},{"geoname_id":635395,"name":"Syllöda","ascii_name":"Sylloeda","alternate_names":"","latitude":"60.28501","longitude":"20.12373","feature_class":"P","feature_code":"PPLL","country_code":"AX","admin1_code":"212","admin2_code":"736","dem":22,"timezone":"Europe/Mariehamn","modification_date":"0001-01-01T00:00:00Z"},{"geoname_id":635423,"name":"Sviskär","ascii_name":"Sviskaer","alternate_names":"","latitude":"60.3612","longitude":"20.17901","feature_class":"T","feature_code":"ISL","country_code":"AX","admin1_code":"736","dem":-9999,"timezone":"Europe/Mariehamn","modification_date":"0001-01-01T00:00:00Z"},{"geoname_id":635424,"name":"Svinö","ascii_name":"Svinoe","alternate_names":"","latitude":"60.07974","longitude":"20.26263","feature_class":"P","feature_code":"PPL","country_code":"AX","admin1_code":"212","admin2_code":"438","dem":11,"timezone":"Europe/Mariehamn","modification_date":"0001-01-01T00:00:00Z"},{"geoname_id":635430,"name":"Svidjeholm","ascii_name":"Svidjeholm","alternate_names":"Svidjeholm","latitude":"60.01667","longitude":"20.6","feature_class":"T","feature_code":"ISL","country_code":"AX","admin1_code":"01","dem":1,"timezone":"Europe/Mariehamn","modification_date":"0001-01-01T00:00:00Z"},{"geoname_id":635440,"name":"Svartstenarna","ascii_name":"Svartstenarna","alternate_names":"Svartstenar,Svartstenarna","latitude":"60.44954","longitude":"20.59835","feature_class":"T","feature_code":"RKS","country_code":"AX","admin1_code":"01","dem":-9999,"timezone":"Europe/Mariehamn","modification_date":"0001-01-01T00:00:00Z"},{"geoname_id":635456,"name":"Svartholm","ascii_name":"Svartholm","alternate_names":"","latitude":"60.19407","longitude":"20.39258","feature_class":"T","feature_code":"ISL","country_code":"AX","admin1_code":"01","dem":-9999,"timezone":"Europe/Mariehamn","modification_date":"0001-01-01T00:00:00Z"},{"geoname_id":635465,"name":"Svartbådan","ascii_name":"Svartbadan","alternate_names":"","latitude":"60.55739","longitude":"20.60527","feature_class":"T","feature_code":"ISL","country_code":"AX","admin1_code":"035","dem":-9999,"timezone":"Europe/Mariehamn","modification_date":"0001-01-01T00:00:00Z"},{"geoname_id":635805,"name":"Sundskär","ascii_name":"Sundskar","alternate_names":"Sundskaer,Sundskär","latitude":"59.79046","longitude":"21.1562","feature_class":"T","feature_code":"ISL","country_code":"AX","admin1_code":"01","dem":9,"timezone":"Europe/Mariehamn","modification_date":"0001-01-01T00:00:00Z"},{"geoname_id":635815,"name":"Sund","ascii_name":"Sund","alternate_names":"Sund,Sundi vald,song de,Сунд,松德","latitude":"60.25","longitude":"20.11667","feature_class":"P","feature_code":"PPLA2","country_code":"AX","cc2":"FI","admin1_code":"212","admin2_code":"771","population":1080,"dem":42,"timezone":"Europe/Mariehamn","modification_date":"0001-01-01T00:00:00Z"},{"geoname_id":635817,"name":"Sund","ascii_name":"Sund","alternate_names":"Sund,Sundin Kunta,Sunds Kommun","latitude":"60.24439","longitude":"20.11942","feature_class":"A","feature_code":"ADM2","country_code":"AX","admin1_code":"212","admin2_code":"771","population":1019,"dem":42,"timezone":"Europe/Mariehamn","modification_date":"0001-01-01T00:00:00Z"},{"geoname_id":635915,"name":"Styrskär","ascii_name":"Styrskaer","alternate_names":"","latitude":"60.02035","longitude":"20.75744","feature_class":"T","feature_code":"ISL","country_code":"AX","admin1_code":"766","dem":-9999,"timezone":"Europe/Mariehamn","modification_date":"0001-01-01T00:00:00Z"},{"geoname_id":635946,"name":"Strömma","ascii_name":"Stroemma","alternate_names":"","latitude":"60.31087","longitude":"20.18144","feature_class":"L","feature_code":"FLD","country_code":"AX","admin1_code":"212","admin2_code":"736","dem":17,"timezone":"Europe/Mariehamn","modification_date":"0001-01-01T00:00:00Z"},{"geoname_id":635967,"name":"Storskäret","ascii_name":"Storskaret","alternate_names":"Flekskar,Flekskär,Storskar,Storskaret,Storskär,Storskäret,Stoskaret,Stoskäret","latitude":"60.44989","longitude":"20.99729","feature_class":"T","feature_code":"ISLS","country_code":"AX","admin1_code":"01","dem":-9999,"timezone":"Europe/Mariehamn","modification_date":"0001-01-01T00:00:00Z"},{"geoname_id":635971,"name":"Storskär","ascii_name":"Storskaer","alternate_names":"","latitude":"60.22732","longitude":"20.4997","feature_class":"T","feature_code":"ISL","country_code":"AX","admin1_code":"941","dem":-9999,"timezone":"Europe/Mariehamn","modification_date":"0001-01-01T00:00:00Z"},{"geoname_id":635972,"name":"Storskär","ascii_name":"Storskaer","alternate_names":"","latitude":"60.01979","longitude":"20.85831","feature_class":"T","feature_code":"ISL","country_code":"AX","admin1_code":"318","dem":-9999,"timezone":"Europe/Mariehamn","modification_date":"0001-01-01T00:00:00Z"},{"geoname_id":635974,"name":"Storskär","ascii_name":"Storskar","alternate_names":"Storskar,Storskär","latitude":"59.81667","longitude":"20.96667","feature_class":"T","feature_code":"ISL","country_code":"AX","admin1_code":"01","dem":-9999,"timezone":"Europe/Mariehamn","modification_date":"0001-01-01T00:00:00Z"},{"geoname_id":635982,"name":"Stora Revet","ascii_name":"Stora Revet","alternate_names":"Stora Revet,Storrevet","latitude":"59.9","longitude":"21.25","feature_class":"T","feature_code":"ISL","country_code":"AX","admin1_code":"01","dem":-9999,"timezone":"Europe/Mariehamn","modification_date":"0001-01-01T00:00:00Z"},{"geoname_id":635986,"name":"Stor-Pensar","ascii_name":"Stor-Pensar","alternate_names":"Stor Pensor,Stor-Pensar,Stora Pensar","latitude":"60.23333","longitude":"20.51667","feature_class":"T","feature_code":"ISL","country_code":"AX","admin1_code":"01","dem":-9999,"timezone":"Europe/Mariehamn","modification_date":"0001-01-01T00:00:00Z"},{"geoname_id":636015,"name":"Storklyndan","ascii_name":"Storklyndan","alternate_names":"Stor Klyndran,Storklinda,Storklynda,Sturklyndan","latitude":"60.64742","longitude":"20.98369","feature_class":"T","feature_code":"ISL","country_code":"AX","cc2":"FI","admin1_code":"035","dem":-9999,"timezone":"Europe/Mariehamn","modification_date":"0001-01-01T00:00:00Z"},{"geoname_id":636016,"name":"Storklobben","ascii_name":"Storklobben","alternate_names":"Storklubb,Storklubben","latitude":"59.96735","longitude":"20.26941","feature_class":"T","feature_code":"ISL","country_code":"AX","admin1_code":"062","dem":14,"timezone":"Europe/Mariehamn","modification_date":"0001-01-01T00:00:00Z"},{"geoname_id":636024,"name":"Storholmen","ascii_name":"Storholmen","alternate_names":"Storholm","latitude":"60.48151","longitude":"20.94605","feature_class":"T","feature_code":"ISL","country_code":"AX","cc2":"FI","admin1_code":"035","dem":-9999,"timezone":"Europe/Mariehamn","modification_date":"0001-01-01T00:00:00Z"},{"geoname_id":636026,"name":"Storholm","ascii_name":"Storholm","alternate_names":"","latitude":"60.52552","longitude":"21.01862","feature_class":"T","feature_code":"ISL","country_code":"AX","admin1_code":"035","dem":-9999,"timezone":"Europe/Mariehamn","modification_date":"0001-01-01T00:00:00Z"},{"geoname_id":636031,"name":"Storhära","ascii_name":"Storhara","alternate_names":"Storhara,Storharu,Storharun,Storhära","latitude":"60.06326","longitude":"20.85848","feature_class":"T","feature_code":"ISL","country_code":"AX","admin1_code":"01","dem":-9999,"timezone":"Europe/Mariehamn","modification_date":"0001-01-01T00:00:00Z"},{"geoname_id":636036,"name":"Storgrundet","ascii_name":"Storgrundet","alternate_names":"Storgrund,Storgrundet,Sturgrund","latitude":"59.96364","longitude":"20.18033","feature_class":"H","feature_code":"SHOL","country_code":"AX","admin1_code":"01","dem":-9999,"timezone":"Europe/Mariehamn","modification_date":"0001-01-01T00:00:00Z"},{"geoname_id":636045,"name":"Storgadden","ascii_name":"Storgadden","alternate_names":"Storgadd,Storgadden","latitude":"59.81667","longitude":"21.23333","feature_class":"T","feature_code":"ISL","country_code":"AX","admin1_code":"01","dem":-9999,"timezone":"Europe/Mariehamn","modification_date":"0001-01-01T00:00:00Z"},{"geoname_id":636047,"name":"Storfjärden","ascii_name":"Storfjarden","alternate_names":"Jarsofjarden,Järsöfjärden,Storfjard,Storfjarden,Storfjärd,Storfjärden","latitude":"60.05","longitude":"20.01667","feature_class":"H","feature_code":"BAY","country_code":"AX","admin1_code":"01","dem":-9999,"timezone":"Europe/Mariehamn","modification_date":"0001-01-01T00:00:00Z"},{"geoname_id":636059,"name":"Stora Tullskär","ascii_name":"Stora Tullskaer","alternate_names":"Stor Tullskar,Stor Tullskär,Tullskar,Tullskär","latitude":"60.27796","longitude":"20.59144","feature_class":"T","feature_code":"ISL","country_code":"AX","cc2":"FI","admin1_code":"941","dem":-9999,"timezone":"Europe/Mariehamn","modification_date":"0001-01-01T00:00:00Z"},{"geoname_id":636062,"name":"Sottunga","ascii_name":"Sottunga","alternate_names":"Sottunga,Stora Sottunga,Storsottunga,Stura Sotunga","latitude":"60.13333","longitude":"20.66667","feature_class":"T","feature_code":"ISL","country_code":"AX","admin1_code":"01","dem":12,"timezone":"Europe/Mariehamn","modification_date":"0001-01-01T00:00:00Z"},{"geoname_id":636063,"name":"Stora Sandören","ascii_name":"Stora Sandoeren","alternate_names":"Sandoren,Sandören","latitude":"59.96987","longitude":"20.60187","feature_class":"T","feature_code":"ISLS","country_code":"AX","cc2":"FI","admin1_code":"062","dem":5,"timezone":"Europe/Mariehamn","modification_date":"0001-01-01T00:00:00Z"},{"geoname_id":636069,"name":"Stora Krokholmen","ascii_name":"Stora Krokholmen","alternate_names":"Krokholmar,Stora Krokholm","latitude":"60.37153","longitude":"20.3512","feature_class":"T","feature_code":"ISL","country_code":"AX","admin1_code":"941","dem":-9999,"timezone":"Europe/Mariehamn","modification_date":"0001-01-01T00:00:00Z"},{"geoname_id":636077,"name":"Stora Gottholmen","ascii_name":"Stora Gottholmen","alternate_names":"Stor Gottholm","latitude":"60.10829","longitude":"20.35716","feature_class":"T","feature_code":"ISL","country_code":"AX","cc2":"FI","admin1_code":"062","dem":-9999,"timezone":"Europe/Mariehamn","modification_date":"0001-01-01T00:00:00Z"},{"geoname_id":636079,"name":"Stora Estö","ascii_name":"Stora Estoe","alternate_names":"Stora Hasto,Stora Hästö","latitude":"59.96974","longitude":"20.45575","feature_class":"T","feature_code":"ISL","country_code":"AX","admin1_code":"062","dem":11,"timezone":"Europe/Mariehamn","modification_date":"0001-01-01T00:00:00Z"},{"geoname_id":636081,"name":"Stora Ängskär","ascii_name":"Stora Angskar","alternate_names":"Angskar,Stora Angskar,Stora Ängskär,Ängskär","latitude":"60.47837","longitude":"21.0074","feature_class":"T","feature_code":"ISL","country_code":"AX","admin1_code":"01","dem":-9999,"timezone":"Europe/Mariehamn","modification_date":"0001-01-01T00:00:00Z"},{"geoname_id":636087,"name":"Stockgrund","ascii_name":"Stockgrund","alternate_names":"Stockgrund","latitude":"60.11686","longitude":"20.34901","feature_class":"T","feature_code":"ISL","country_code":"AX","admin1_code":"941","dem":-9999,"timezone":"Europe/Mariehamn","modification_date":"0001-01-01T00:00:00Z"},{"geoname_id":636093,"name":"Stenskär","ascii_name":"Stenskar","alternate_names":"Stenskar,Stenskaren,Stenskär,Stenskären","latitude":"59.9","longitude":"21.01667","feature_class":"T","feature_code":"ISLS","country_code":"AX","admin1_code":"15","dem":-9999,"timezone":"Europe/Mariehamn","modification_date":"0001-01-01T00:00:00Z"},{"geoname_id":636095,"name":"Stenskär","ascii_name":"Stenskaer","alternate_names":"","latitude":"59.93873","longitude":"20.59312","feature_class":"T","feature_code":"ISL","country_code":"AX","admin1_code":"062","dem":7,"timezone":"Europe/Mariehamn","modification_date":"0001-01-01T00:00:00Z"},{"geoname_id":636105,"name":"Stenbådan","ascii_name":"Stenbadan","alternate_names":"","latitude":"60.54447","longitude":"20.617","feature_class":"T","feature_code":"ISL","country_code":"AX","admin1_code":"035","dem":-9999,"timezone":"Europe/Mariehamn","modification_date":"0001-01-01T00:00:00Z"},{"geoname_id":636111,"name":"Stäckan","ascii_name":"Staeckan","alternate_names":"","latitude":"60.43349","longitude":"20.22723","feature_class":"T","feature_code":"ISL","country_code":"AX","admin1_code":"736","dem":-9999,"timezone":"Europe/Mariehamn","modification_date":"0001-01-01T00:00:00Z"},{"geoname_id":636117,"name":"Stångskär","ascii_name":"Stangskaer","alternate_names":"","latitude":"60.39694","longitude":"20.28049","feature_class":"T","feature_code":"ISL","country_code":"AX","admin1_code":"941","dem":-9999,"timezone":"Europe/Mariehamn","modification_date":"0001-01-01T00:00:00Z"},{"geoname_id":636118,"name":"Stångskär","ascii_name":"Stangskaer","alternate_names":"","latitude":"60.27026","longitude":"20.50586","feature_class":"T","feature_code":"ISL","country_code":"AX","admin1_code":"941","dem":-9999,"timezone":"Europe/Mariehamn","modification_date":"0001-01-01T00:00:00Z"},{"geoname_id":636119,"name":"Börsskärs grundet","ascii_name":"Borsskars grundet","alternate_names":"Borsskars grundet,Börsskärs grundet,Stangkobb,Stangkobben,Stångkobb,Stångkobben","latitude":"60.21757","longitude":"20.49726","feature_class":"T","feature_code":"ISL","country_code":"AX","admin1_code":"01","dem":-9999,"timezone":"Europe/Mariehamn","modification_date":"0001-01-01T00:00:00Z"},{"geoname_id":636128,"name":"Stackskär","ascii_name":"Stackskar","alternate_names":"","latitude":"59.95","longitude":"20.6","feature_class":"T","feature_code":"ISL","country_code":"AX","admin1_code":"01","dem":-9999,"timezone":"Europe/Mariehamn","modification_date":"0001-01-01T00:00:00Z"},{"geoname_id":636133,"name":"Sparvhäran","ascii_name":"Sparvharan","alternate_names":"Sparfharun,Sparvharan,Sparvharun,Sparvhäran","latitude":"60.46383","longitude":"20.66714","feature_class":"T","feature_code":"RK","country_code":"AX","admin1_code":"01","dem":-9999,"timezone":"Europe/Mariehamn","modification_date":"0001-01-01T00:00:00Z"},{"geoname_id":636158,"name":"Sottunga","ascii_name":"Sottunga","alternate_names":"Sottunga","latitude":"60.13023","longitude":"20.66683","feature_class":"P","feature_code":"PPLA2","country_code":"AX","cc2":"FI","admin1_code":"213","admin2_code":"766","population":144,"dem":12,"timezone":"Europe/Mariehamn","modification_date":"0001-01-01T00:00:00Z"},{"geoname_id":636159,"name":"Sottunga","ascii_name":"Sottunga","alternate_names":"Sottunga,Sottunga Kommun,Sottunga vald,Sottungan Kunta,suo tong a,Соттунга,索通阿","latitude":"60.11667","longitude":"20.75","feature_class":"A","feature_code":"ADM2","country_code":"AX","admin1_code":"213","admin2_code":"766","population":119,"dem":-9999,"timezone":"Europe/Mariehamn","modification_date":"0001-01-01T00:00:00Z"},{"geoname_id":636291,"name":"Sonnboda","ascii_name":"Sonnboda","alternate_names":"Sonboda,Sonnboda","latitude":"60.047","longitude":"20.47976","feature_class":"P","feature_code":"PPL","country_code":"AX","admin1_code":"213","admin2_code":"062","dem":9,"timezone":"Europe/Mariehamn","modification_date":"0001-01-01T00:00:00Z"},{"geoname_id":636292,"name":"Sonnbodalandet","ascii_name":"Sonnbodalandet","alternate_names":"Sonboda,Sonnboda","latitude":"60.03944","longitude":"20.4951","feature_class":"T","feature_code":"ISL","country_code":"AX","cc2":"FI","admin1_code":"062","dem":10,"timezone":"Europe/Mariehamn","modification_date":"0001-01-01T00:00:00Z"},{"geoname_id":636326,"name":"Sommarön","ascii_name":"Sommaroen","alternate_names":"Sommaro,Sommarö","latitude":"59.97517","longitude":"20.28854","feature_class":"T","feature_code":"ISL","country_code":"AX","admin1_code":"062","dem":20,"timezone":"Europe/Mariehamn","modification_date":"0001-01-01T00:00:00Z"},{"geoname_id":636332,"name":"Sommarö","ascii_name":"Sommaroe","alternate_names":"","latitude":"60.03563","longitude":"20.56186","feature_class":"P","feature_code":"PPLL","country_code":"AX","admin1_code":"213","admin2_code":"062","dem":10,"timezone":"Europe/Mariehamn","modification_date":"0001-01-01T00:00:00Z"},{"geoname_id":636334,"name":"Sommarön","ascii_name":"Sommaron","alternate_names":"Sommaro,Sommaron,Sommarö,Sommarön","latitude":"60.3798","longitude":"20.10925","feature_class":"S","feature_code":"HSE","country_code":"AX","admin1_code":"01","dem":-9999,"timezone":"Europe/Mariehamn","modification_date":"0001-01-01T00:00:00Z"},{"geoname_id":636336,"name":"Sommarö","ascii_name":"Sommaro","alternate_names":"Ostersocknen,Sommaro,Sommarö,Östersocknen","latitude":"60.03807","longitude":"20.56142","feature_class":"P","feature_code":"PPLL","country_code":"AX","admin1_code":"01","dem":10,"timezone":"Europe/Mariehamn","modification_date":"0001-01-01T00:00:00Z"},{"geoname_id":636422,"name":"Södrafjärden","ascii_name":"Sodrafjarden","alternate_names":"Sodrafjard,Sodrafjarden,Södrafjärd,Södrafjärden,Vastra fjard,Västra fjärd","latitude":"60.2","longitude":"20.01667","feature_class":"H","feature_code":"INLT","country_code":"AX","admin1_code":"01","dem":-9999,"timezone":"Europe/Mariehamn","modification_date":"0001-01-01T00:00:00Z"},{"geoname_id":636426,"name":"Södö","ascii_name":"Soedoe","alternate_names":"Sedo,Sedö","latitude":"60.07981","longitude":"20.74455","feature_class":"T","feature_code":"ISL","country_code":"AX","cc2":"FI","admin1_code":"213","admin2_code":"766","dem":-9999,"timezone":"Europe/Mariehamn","modification_date":"0001-01-01T00:00:00Z"},{"geoname_id":636444,"name":"Söderlandet","ascii_name":"Soderlandet","alternate_names":"Soderlandet,Söderlandet","latitude":"60.22085","longitude":"21.00672","feature_class":"T","feature_code":"ISL","country_code":"AX","admin1_code":"01","dem":-9999,"timezone":"Europe/Mariehamn","modification_date":"0001-01-01T00:00:00Z"},{"geoname_id":636450,"name":"Söderholmen","ascii_name":"Soderholmen","alternate_names":"Soderholm,Soderholmen,Söderholm,Söderholmen","latitude":"60.39288","longitude":"20.97996","feature_class":"T","feature_code":"ISLX","country_code":"AX","admin1_code":"01","dem":-9999,"timezone":"Europe/Mariehamn","modification_date":"0001-01-01T00:00:00Z"},{"geoname_id":636451,"name":"Söderholmen","ascii_name":"Soderholmen","alternate_names":"Sederholm,Soderholm,Soderholmen,Söderholm,Söderholmen","latitude":"60.38352","longitude":"21.06821","feature_class":"T","feature_code":"ISL","country_code":"AX","admin1_code":"01","dem":-9999,"timezone":"Europe/Helsinki","modification_date":"0001-01-01T00:00:00Z"},{"geoname_id":636452,"name":"Söderhärorna","ascii_name":"Soderharorna","alternate_names":"Soderharorna,Soderharu,Soderharun,Söderharu,Söderharun,Söderhärorna","latitude":"59.95","longitude":"21.15","feature_class":"T","feature_code":"ISLS","country_code":"AX","admin1_code":"01","dem":-9999,"timezone":"Europe/Mariehamn","modification_date":"0001-01-01T00:00:00Z"},{"geoname_id":636461,"name":"Söderby","ascii_name":"Soederby","alternate_names":"","latitude":"60.06682","longitude":"20.0714","feature_class":"P","feature_code":"PPL","country_code":"AX","admin1_code":"212","admin2_code":"417","dem":8,"timezone":"Europe/Mariehamn","modification_date":"0001-01-01T00:00:00Z"},{"geoname_id":636463,"name":"Söderby","ascii_name":"Soederby","alternate_names":"","latitude":"59.93333","longitude":"20.96667","feature_class":"P","feature_code":"PPL","country_code":"AX","admin1_code":"213","admin2_code":"318","dem":9,"timezone":"Europe/Mariehamn","modification_date":"0001-01-01T00:00:00Z"},{"geoname_id":636474,"name":"Snöskärs Fjärden","ascii_name":"Snoskars Fjarden","alternate_names":"Snoskars Fjarden,Snoskarsfjarden,Snöskärs Fjärden,Snöskärsfjärden","latitude":"60.13054","longitude":"20.5431","feature_class":"H","feature_code":"SD","country_code":"AX","admin1_code":"01","dem":-9999,"timezone":"Europe/Mariehamn","modification_date":"0001-01-01T00:00:00Z"},{"geoname_id":636476,"name":"Snöbådan","ascii_name":"Snobadan","alternate_names":"Sneboda,Snobada,Snobadan,Snöbåda,Snöbådan","latitude":"60.24046","longitude":"21.08649","feature_class":"T","feature_code":"RK","country_code":"AX","admin1_code":"15","dem":-9999,"timezone":"Europe/Helsinki","modification_date":"0001-01-01T00:00:00Z"},{"geoname_id":636484,"name":"Snäckö","ascii_name":"Snacko","alternate_names":"Snacko,Sneko,Snekö,Snäckö","latitude":"60.23542","longitude":"20.73144","feature_class":"T","feature_code":"ISLT","country_code":"AX","admin1_code":"01","dem":-9999,"timezone":"Europe/Mariehamn","modification_date":"0001-01-01T00:00:00Z"},{"geoname_id":636494,"name":"Smedsböle","ascii_name":"Smedsboele","alternate_names":"Smedsbele,Smedsbole,Smedsby,Smedsbële,Smedsböle","latitude":"60.22222","longitude":"20.16203","feature_class":"P","feature_code":"PPL","country_code":"AX","admin1_code":"212","admin2_code":"771","dem":10,"timezone":"Europe/Mariehamn","modification_date":"0001-01-01T00:00:00Z"},{"geoname_id":636502,"name":"Småskär","ascii_name":"Smaskaer","alternate_names":"","latitude":"60.56991","longitude":"20.85738","feature_class":"T","feature_code":"ISL","country_code":"AX","admin1_code":"035","dem":-9999,"timezone":"Europe/Mariehamn","modification_date":"0001-01-01T00:00:00Z"},{"geoname_id":636506,"name":"Slottssundet","ascii_name":"Slottssundet","alternate_names":"Kastelholmsviken,Slottssund,Slottssundet","latitude":"60.20876","longitude":"20.07167","feature_class":"H","feature_code":"INLT","country_code":"AX","admin1_code":"01","dem":1,"timezone":"Europe/Mariehamn","modification_date":"0001-01-01T00:00:00Z"},{"geoname_id":636509,"name":"Slätskär","ascii_name":"Slaetskaer","alternate_names":"","latitude":"60.44288","longitude":"20.22519","feature_class":"T","feature_code":"ISL","country_code":"AX","admin1_code":"736","dem":-9999,"timezone":"Europe/Mariehamn","modification_date":"0001-01-01T00:00:00Z"},{"geoname_id":636530,"name":"Skottskär","ascii_name":"Skottskaer","alternate_names":"Skattskar,Skattskär","latitude":"59.94751","longitude":"20.41672","feature_class":"T","feature_code":"ISL","country_code":"AX","admin1_code":"062","dem":5,"timezone":"Europe/Mariehamn","modification_date":"0001-01-01T00:00:00Z"},{"geoname_id":636539,"name":"Skogsskär","ascii_name":"Skogsskaer","alternate_names":"Skogskar,Skogskär","latitude":"60.61732","longitude":"20.93528","feature_class":"T","feature_code":"ISL","country_code":"AX","cc2":"FI","admin1_code":"035","dem":-9999,"timezone":"Europe/Mariehamn","modification_date":"0001-01-01T00:00:00Z"},{"geoname_id":636548,"name":"Skogboda","ascii_name":"Skogboda","alternate_names":"Skogboda,Skugboda","latitude":"60.02535","longitude":"20.51309","feature_class":"P","feature_code":"PPLL","country_code":"AX","admin1_code":"213","admin2_code":"062","dem":-9999,"timezone":"Europe/Mariehamn","modification_date":"0001-01-01T00:00:00Z"},{"geoname_id":636574,"name":"Skarvör","ascii_name":"Skarvoer","alternate_names":"","latitude":"59.8962","longitude":"20.23106","feature_class":"T","feature_code":"ISL","country_code":"AX","admin1_code":"062","dem":4,"timezone":"Europe/Mariehamn","modification_date":"0001-01-01T00:00:00Z"},{"geoname_id":636579,"name":"Skarpskär","ascii_name":"Skarpskaer","alternate_names":"Skarp,Skarpska,Skarpskä","latitude":"60.11265","longitude":"20.46083","feature_class":"T","feature_code":"ISL","country_code":"AX","cc2":"FI","admin1_code":"062","dem":-9999,"timezone":"Europe/Mariehamn","modification_date":"0001-01-01T00:00:00Z"},{"geoname_id":636585,"name":"Skäret","ascii_name":"Skaret","alternate_names":"Skaret,Skäret","latitude":"60.28397","longitude":"21.03183","feature_class":"T","feature_code":"ISL","country_code":"AX","admin1_code":"01","dem":-9999,"timezone":"Europe/Helsinki","modification_date":"0001-01-01T00:00:00Z"},{"geoname_id":636586,"name":"Själtroskär","ascii_name":"Sjaltroskar","alternate_names":"Sjaltroskar,Själtroskär,Skaltroskar,Skituskar,Skituskär,Skältroskär","latitude":"59.88333","longitude":"21.06667","feature_class":"T","feature_code":"ISL","country_code":"AX","admin1_code":"01","dem":-9999,"timezone":"Europe/Mariehamn","modification_date":"0001-01-01T00:00:00Z"},{"geoname_id":636594,"name":"Skålklobbarna","ascii_name":"Skalklobbarna","alternate_names":"Skalklubb,Skålklubb","latitude":"60.23782","longitude":"20.43911","feature_class":"T","feature_code":"ISLS","country_code":"AX","admin1_code":"941","dem":-9999,"timezone":"Europe/Mariehamn","modification_date":"0001-01-01T00:00:00Z"},{"geoname_id":636601,"name":"Skag","ascii_name":"Skag","alternate_names":"","latitude":"60.08729","longitude":"20.23147","feature_class":"P","feature_code":"PPL","country_code":"AX","admin1_code":"212","admin2_code":"438","dem":-9999,"timezone":"Europe/Mariehamn","modification_date":"0001-01-01T00:00:00Z"},{"geoname_id":636618,"name":"Sälö","ascii_name":"Saeloe","alternate_names":"Salo,Sälö","latitude":"60.40037","longitude":"20.34629","feature_class":"T","feature_code":"ISL","country_code":"AX","admin1_code":"941","dem":-9999,"timezone":"Europe/Mariehamn","modification_date":"0001-01-01T00:00:00Z"},{"geoname_id":636764,"name":"Simskälafjärden","ascii_name":"Simskalafjarden","alternate_names":"","latitude":"60.33333","longitude":"20.25","feature_class":"H","feature_code":"CHNM","country_code":"AX","admin1_code":"01","dem":-9999,"timezone":"Europe/Mariehamn","modification_date":"0001-01-01T00:00:00Z"},{"geoname_id":636765,"name":"Simskäla","ascii_name":"Simskaela","alternate_names":"","latitude":"60.34139","longitude":"20.3097","feature_class":"P","feature_code":"PPL","country_code":"AX","admin1_code":"213","admin2_code":"941","dem":9,"timezone":"Europe/Mariehamn","modification_date":"0001-01-01T00:00:00Z"},{"geoname_id":636766,"name":"Simskäla","ascii_name":"Simskala","alternate_names":"","latitude":"60.34679","longitude":"20.36049","feature_class":"T","feature_code":"ISLS","country_code":"AX","admin1_code":"01","dem":9,"timezone":"Europe/Mariehamn","modification_date":"0001-01-01T00:00:00Z"},{"geoname_id":636816,"name":"Silverskärsfjärden","ascii_name":"Silverskarsfjarden","alternate_names":"","latitude":"60.35407","longitude":"20.17722","feature_class":"H","feature_code":"CHNM","country_code":"AX","admin1_code":"01","dem":-9999,"timezone":"Europe/Mariehamn","modification_date":"0001-01-01T00:00:00Z"},{"geoname_id":636817,"name":"Silverskär","ascii_name":"Silverskaer","alternate_names":"","latitude":"60.35999","longitude":"20.14148","feature_class":"T","feature_code":"ISL","country_code":"AX","admin1_code":"736","dem":-9999,"timezone":"Europe/Mariehamn","modification_date":"0001-01-01T00:00:00Z"},{"geoname_id":637027,"name":"Signäs Udd","ascii_name":"Signas Udd","alternate_names":"","latitude":"60.3","longitude":"20.46667","feature_class":"T","feature_code":"PT","country_code":"AX","admin1_code":"15","dem":-9999,"timezone":"Europe/Mariehamn","modification_date":"0001-01-01T00:00:00Z"},{"geoname_id":637065,"name":"Sibby","ascii_name":"Sibby","alternate_names":"","latitude":"60.25733","longitude":"20.19579","feature_class":"P","feature_code":"PPLL","country_code":"AX","admin1_code":"212","admin2_code":"771","dem":29,"timezone":"Europe/Mariehamn","modification_date":"0001-01-01T00:00:00Z"},{"geoname_id":637226,"name":"Seglinge","ascii_name":"Seglinge","alternate_names":"Seilonen","latitude":"60.20496","longitude":"20.69569","feature_class":"P","feature_code":"PPL","country_code":"AX","admin1_code":"213","admin2_code":"295","dem":17,"timezone":"Europe/Mariehamn","modification_date":"0001-01-01T00:00:00Z"},{"geoname_id":637227,"name":"Seglinge","ascii_name":"Seglinge","alternate_names":"","latitude":"60.20905","longitude":"20.67901","feature_class":"T","feature_code":"ISL","country_code":"AX","admin1_code":"295","dem":11,"timezone":"Europe/Mariehamn","modification_date":"0001-01-01T00:00:00Z"},{"geoname_id":637230,"name":"Segelskär","ascii_name":"Segelskaer","alternate_names":"","latitude":"60.17534","longitude":"20.46277","feature_class":"T","feature_code":"ISL","country_code":"AX","admin1_code":"941","dem":-9999,"timezone":"Europe/Mariehamn","modification_date":"0001-01-01T00:00:00Z"},{"geoname_id":637784,"name":"Sandskär","ascii_name":"Sandskaer","alternate_names":"","latitude":"60.10603","longitude":"20.75752","feature_class":"T","feature_code":"ISL","country_code":"AX","admin1_code":"766","dem":-9999,"timezone":"Europe/Mariehamn","modification_date":"0001-01-01T00:00:00Z"},{"geoname_id":637785,"name":"Sandskär","ascii_name":"Sandskar","alternate_names":"","latitude":"60","longitude":"21","feature_class":"T","feature_code":"ISL","country_code":"AX","admin1_code":"01","dem":-9999,"timezone":"Europe/Mariehamn","modification_date":"0001-01-01T00:00:00Z"},{"geoname_id":637791,"name":"Sandön","ascii_name":"Sandoen","alternate_names":"Sando,Sandö","latitude":"60.07472","longitude":"20.44425","feature_class":"T","feature_code":"ISL","country_code":"AX","admin1_code":"062","dem":-9999,"timezone":"Europe/Mariehamn","modification_date":"0001-01-01T00:00:00Z"},{"geoname_id":637793,"name":"Sandö","ascii_name":"Sandoe","alternate_names":"","latitude":"60.2928","longitude":"20.38798","feature_class":"L","feature_code":"FLD","country_code":"AX","admin1_code":"213","admin2_code":"941","dem":12,"timezone":"Europe/Mariehamn","modification_date":"0001-01-01T00:00:00Z"},{"geoname_id":637799,"name":"Sandö","ascii_name":"Sando","alternate_names":"","latitude":"60.29012","longitude":"20.39697","feature_class":"T","feature_code":"ISL","country_code":"AX","admin1_code":"01","dem":8,"timezone":"Europe/Mariehamn","modification_date":"0001-01-01T00:00:00Z"},{"geoname_id":637809,"name":"Sandrevet","ascii_name":"Sandrevet","alternate_names":"Sandlanden,Sandrevet,Sandtuvorna","latitude":"59.93333","longitude":"21.18333","feature_class":"T","feature_code":"RKS","country_code":"AX","admin1_code":"01","dem":-9999,"timezone":"Europe/Mariehamn","modification_date":"0001-01-01T00:00:00Z"},{"geoname_id":637814,"name":"Sandbäck","ascii_name":"Sandback","alternate_names":"Etela Sandback,Etelä Sandbäck,Sandback Etelainen,Sandback Sodra,Sandbacks,Sandbacks Sodra,Sandbäck Eteläinen,Sandbäck Södra,Sandbäcks,Sandbäcks Södra,Sodra Sandbacksgrunden,Södra Sandbäcksgrunden","latitude":"60.73333","longitude":"20.75","feature_class":"T","feature_code":"RK","country_code":"AX","cc2":"FI","admin1_code":"01","dem":-9999,"timezone":"Europe/Mariehamn","modification_date":"0001-01-01T00:00:00Z"},{"geoname_id":637815,"name":"Sandbäck","ascii_name":"Sandback","alternate_names":"Norra Sandbacksgrunden,Norra Sandbäcksgrunden,Sandback Pohjolainen,Sandbacks Norra,Sandbäck Pohjolainen,Sandbäcks Norra","latitude":"60.76667","longitude":"20.75","feature_class":"H","feature_code":"SHOL","country_code":"AX","cc2":"FI","admin1_code":"01","dem":-9999,"timezone":"Europe/Mariehamn","modification_date":"0001-01-01T00:00:00Z"},{"geoname_id":637825,"name":"Samppa","ascii_name":"Samppa","alternate_names":"","latitude":"60.36667","longitude":"20.13333","feature_class":"P","feature_code":"PPL","country_code":"AX","admin1_code":"15","dem":-9999,"timezone":"Europe/Mariehamn","modification_date":"0001-01-01T00:00:00Z"},{"geoname_id":637878,"name":"Saltvik","ascii_name":"Saltvik","alternate_names":"","latitude":"60.28333","longitude":"20.05","feature_class":"P","feature_code":"PPLA2","country_code":"AX","cc2":"FI","admin1_code":"212","admin2_code":"736","population":1691,"dem":-9999,"timezone":"Europe/Mariehamn","modification_date":"0001-01-01T00:00:00Z"},{"geoname_id":637880,"name":"Saltvik","ascii_name":"Saltvik","alternate_names":"Sal'tvik,Saltvik,Saltviki vald,Saltvikin Kunta,Saltviks Kommun,sa er te wei ke,Сальтвик,薩爾特維克","latitude":"60.27978","longitude":"20.05481","feature_class":"A","feature_code":"ADM2","country_code":"AX","admin1_code":"212","admin2_code":"736","population":1802,"dem":-9999,"timezone":"Europe/Mariehamn","modification_date":"0001-01-01T00:00:00Z"},{"geoname_id":637884,"name":"Sarvkobb","ascii_name":"Sarvkobb","alternate_names":"Saltklobb,Saltkubb","latitude":"59.90338","longitude":"20.0802","feature_class":"T","feature_code":"ISL","country_code":"AX","cc2":"FI","admin1_code":"062","dem":6,"timezone":"Europe/Mariehamn","modification_date":"0001-01-01T00:00:00Z"},{"geoname_id":637885,"name":"Sältingskär","ascii_name":"Saeltingskaer","alternate_names":"","latitude":"59.9471","longitude":"20.26587","feature_class":"T","feature_code":"ISL","country_code":"AX","admin1_code":"062","dem":7,"timezone":"Europe/Mariehamn","modification_date":"0001-01-01T00:00:00Z"},{"geoname_id":637887,"name":"Sälsö","ascii_name":"Saelsoe","alternate_names":"Sabso,Selso,Selsö,Solso,Säbsö,Sölsö","latitude":"60.07512","longitude":"20.74991","feature_class":"T","feature_code":"ISL","country_code":"AX","cc2":"FI","admin1_code":"213","admin2_code":"766","dem":-9999,"timezone":"Europe/Mariehamn","modification_date":"0001-01-01T00:00:00Z"},{"geoname_id":637889,"name":"Sälskär","ascii_name":"Saelskaer","alternate_names":"","latitude":"60.39403","longitude":"20.69158","feature_class":"T","feature_code":"ISL","country_code":"AX","admin1_code":"295","dem":-9999,"timezone":"Europe/Mariehamn","modification_date":"0001-01-01T00:00:00Z"},{"geoname_id":638220,"name":"Saggö","ascii_name":"Saggoe","alternate_names":"","latitude":"60.43273","longitude":"20.0606","feature_class":"T","feature_code":"ISL","country_code":"AX","admin1_code":"736","dem":1,"timezone":"Europe/Mariehamn","modification_date":"0001-01-01T00:00:00Z"},{"geoname_id":638222,"name":"Såg","ascii_name":"Sag","alternate_names":"","latitude":"60.11667","longitude":"20.01667","feature_class":"P","feature_code":"PPL","country_code":"AX","admin1_code":"212","admin2_code":"170","dem":12,"timezone":"Europe/Mariehamn","modification_date":"0001-01-01T00:00:00Z"},{"geoname_id":638564,"name":"Norra Rysskär","ascii_name":"Norra Rysskaer","alternate_names":"Rysskaren,Rysskären,Ryssskar,Ryssskär","latitude":"60.3121","longitude":"20.82113","feature_class":"T","feature_code":"ISL","country_code":"AX","cc2":"FI","admin1_code":"295","dem":-9999,"timezone":"Europe/Mariehamn","modification_date":"0001-01-01T00:00:00Z"},{"geoname_id":638928,"name":"Rövarör","ascii_name":"Roevaroer","alternate_names":"Ravero,Raverö,Rovaro,Rövarö","latitude":"60.03074","longitude":"20.36459","feature_class":"T","feature_code":"ISL","country_code":"AX","admin1_code":"062","dem":-9999,"timezone":"Europe/Mariehamn","modification_date":"0001-01-01T00:00:00Z"},{"geoname_id":638993,"name":"Rörstorp","ascii_name":"Roerstorp","alternate_names":"","latitude":"60.07338","longitude":"20.13235","feature_class":"P","feature_code":"PPL","country_code":"AX","admin1_code":"212","admin2_code":"417","dem":9,"timezone":"Europe/Mariehamn","modification_date":"0001-01-01T00:00:00Z"},{"geoname_id":639022,"name":"Brännskär","ascii_name":"Braennskaer","alternate_names":"Ronnskar,Rönnskär","latitude":"60.26066","longitude":"20.50293","feature_class":"T","feature_code":"ISL","country_code":"AX","cc2":"FI","admin1_code":"941","dem":-9999,"timezone":"Europe/Mariehamn","modification_date":"0001-01-01T00:00:00Z"},{"geoname_id":639023,"name":"Rönnskär","ascii_name":"Roennskaer","alternate_names":"","latitude":"60.15592","longitude":"20.72788","feature_class":"T","feature_code":"ISL","country_code":"AX","admin1_code":"295","dem":-9999,"timezone":"Europe/Mariehamn","modification_date":"0001-01-01T00:00:00Z"},{"geoname_id":639025,"name":"Rönnskär","ascii_name":"Roennskaer","alternate_names":"","latitude":"59.92474","longitude":"20.16487","feature_class":"T","feature_code":"ISL","country_code":"AX","admin1_code":"062","dem":6,"timezone":"Europe/Mariehamn","modification_date":"0001-01-01T00:00:00Z"},{"geoname_id":639107,"name":"Små Rödskären","ascii_name":"Sma Rodskaren","alternate_names":"Rodskaren,Rödskären,Sma Rodskaren,Små Rödskären","latitude":"59.83333","longitude":"21.05","feature_class":"T","feature_code":"RKS","country_code":"AX","admin1_code":"01","dem":8,"timezone":"Europe/Mariehamn","modification_date":"0001-01-01T00:00:00Z"},{"geoname_id":639108,"name":"Rödskär","ascii_name":"Roedskaer","alternate_names":"Rodskaren,Rödskären","latitude":"60.44625","longitude":"20.4583","feature_class":"T","feature_code":"ISLS","country_code":"AX","cc2":"FI","admin1_code":"941","dem":-9999,"timezone":"Europe/Mariehamn","modification_date":"0001-01-01T00:00:00Z"},{"geoname_id":639111,"name":"Rödskär","ascii_name":"Roedskaer","alternate_names":"Reskar,Reskär","latitude":"59.94716","longitude":"20.15811","feature_class":"T","feature_code":"ISL","country_code":"AX","cc2":"FI","admin1_code":"417","dem":7,"timezone":"Europe/Mariehamn","modification_date":"0001-01-01T00:00:00Z"},{"geoname_id":639112,"name":"Rödö","ascii_name":"Rodo","alternate_names":"Rodo,Rödö","latitude":"60.03139","longitude":"20.04389","feature_class":"T","feature_code":"ISL","country_code":"AX","admin1_code":"01","dem":-9999,"timezone":"Europe/Mariehamn","modification_date":"0001-01-01T00:00:00Z"},{"geoname_id":639113,"name":"Rödö","ascii_name":"Rodo","alternate_names":"Redskar,Redskär,Rodo,Rödö","latitude":"59.98045","longitude":"20.10687","feature_class":"T","feature_code":"ISL","country_code":"AX","admin1_code":"01","dem":20,"timezone":"Europe/Mariehamn","modification_date":"0001-01-01T00:00:00Z"},{"geoname_id":639114,"name":"Rödkläppbådan","ascii_name":"Rodklappbadan","alternate_names":"","latitude":"59.95","longitude":"20.8","feature_class":"T","feature_code":"RKS","country_code":"AX","admin1_code":"01","dem":-9999,"timezone":"Europe/Mariehamn","modification_date":"0001-01-01T00:00:00Z"},{"geoname_id":639117,"name":"Rödgrund","ascii_name":"Roedgrund","alternate_names":"Rodgrund,Rödgrund","latitude":"60.08817","longitude":"20.76226","feature_class":"T","feature_code":"ISL","country_code":"AX","cc2":"FI","admin1_code":"766","dem":-9999,"timezone":"Europe/Mariehamn","modification_date":"0001-01-01T00:00:00Z"},{"geoname_id":639996,"name":"Randholm","ascii_name":"Randholm","alternate_names":"Ranholmen","latitude":"60.13745","longitude":"20.30787","feature_class":"T","feature_code":"ISL","country_code":"AX","cc2":"FI","admin1_code":"941","dem":-9999,"timezone":"Europe/Mariehamn","modification_date":"0001-01-01T00:00:00Z"},{"geoname_id":639999,"name":"Ramsöörarna","ascii_name":"Ramsoeoerarna","alternate_names":"Ramsoarna,Ramsöarna","latitude":"60.34841","longitude":"20.24288","feature_class":"T","feature_code":"ISLS","country_code":"AX","cc2":"FI","admin1_code":"736","dem":-9999,"timezone":"Europe/Mariehamn","modification_date":"0001-01-01T00:00:00Z"},{"geoname_id":640001,"name":"Ramsö","ascii_name":"Ramso","alternate_names":"Ramsholm,Ramso,Ramsö","latitude":"60.43326","longitude":"20.95542","feature_class":"T","feature_code":"ISL","country_code":"AX","admin1_code":"01","dem":-9999,"timezone":"Europe/Mariehamn","modification_date":"0001-01-01T00:00:00Z"},{"geoname_id":640003,"name":"Ramsö","ascii_name":"Ramsoe","alternate_names":"","latitude":"60.05875","longitude":"20.74653","feature_class":"T","feature_code":"ISL","country_code":"AX","admin1_code":"766","dem":-9999,"timezone":"Europe/Mariehamn","modification_date":"0001-01-01T00:00:00Z"},{"geoname_id":640005,"name":"Ramsö","ascii_name":"Ramsoe","alternate_names":"","latitude":"60.01552","longitude":"20.23285","feature_class":"T","feature_code":"ISL","country_code":"AX","admin1_code":"417","dem":1,"timezone":"Europe/Mariehamn","modification_date":"0001-01-01T00:00:00Z"},{"geoname_id":640007,"name":"Ramsö","ascii_name":"Ramsoe","alternate_names":"","latitude":"59.98353","longitude":"20.46409","feature_class":"T","feature_code":"ISL","country_code":"AX","admin1_code":"062","dem":17,"timezone":"Europe/Mariehamn","modification_date":"0001-01-01T00:00:00Z"},{"geoname_id":640199,"name":"Räddarskär","ascii_name":"Raddarskar","alternate_names":"Raddarskar,Redarskar,Redarskär,Riddarskar,Riddarskär,Räddarskär","latitude":"60.41023","longitude":"20.84624","feature_class":"T","feature_code":"ISLX","country_code":"AX","admin1_code":"01","dem":-9999,"timezone":"Europe/Mariehamn","modification_date":"0001-01-01T00:00:00Z"},{"geoname_id":640695,"name":"Pungö","ascii_name":"Pungo","alternate_names":"","latitude":"60","longitude":"20","feature_class":"T","feature_code":"ISL","country_code":"AX","admin1_code":"01","dem":4,"timezone":"Europe/Mariehamn","modification_date":"0001-01-01T00:00:00Z"},{"geoname_id":640822,"name":"Prästö Sundet","ascii_name":"Prasto Sundet","alternate_names":"Prasto Sundet,Prastonsalmi,Prastosund,Presto Channel,Prestö Channel,Prästö Sundet,Prästönsalmi,Prästösund","latitude":"60.21667","longitude":"20.28333","feature_class":"H","feature_code":"CHNM","country_code":"AX","admin1_code":"01","dem":-9999,"timezone":"Europe/Mariehamn","modification_date":"0001-01-01T00:00:00Z"},{"geoname_id":640824,"name":"Prästö","ascii_name":"Praestoe","alternate_names":"Presto,Prestö","latitude":"60.21251","longitude":"20.26019","feature_class":"T","feature_code":"ISL","country_code":"AX","cc2":"FI","admin1_code":"771","dem":11,"timezone":"Europe/Mariehamn","modification_date":"0001-01-01T00:00:00Z"},{"geoname_id":640924,"name":"Porsskär","ascii_name":"Porsskaer","alternate_names":"","latitude":"60.46222","longitude":"20.78719","feature_class":"T","feature_code":"ISL","country_code":"AX","admin1_code":"035","dem":-9999,"timezone":"Europe/Mariehamn","modification_date":"0001-01-01T00:00:00Z"},{"geoname_id":642492,"name":"Pattungarna","ascii_name":"Pattungarna","alternate_names":"Pattskar,Pattskaren,Pattskär,Pattskären","latitude":"60.4845","longitude":"20.45316","feature_class":"T","feature_code":"ISL","country_code":"AX","cc2":"FI","admin1_code":"295","dem":-9999,"timezone":"Europe/Mariehamn","modification_date":"0001-01-01T00:00:00Z"},{"geoname_id":642495,"name":"Pattonskär","ascii_name":"Pattonskar","alternate_names":"","latitude":"59.86667","longitude":"21.26667","feature_class":"T","feature_code":"ISL","country_code":"AX","admin1_code":"01","dem":-9999,"timezone":"Europe/Mariehamn","modification_date":"0001-01-01T00:00:00Z"},{"geoname_id":643435,"name":"Överö","ascii_name":"OEveroe","alternate_names":"","latitude":"60.10671","longitude":"20.51905","feature_class":"P","feature_code":"PPL","country_code":"AX","admin1_code":"213","admin2_code":"062","dem":10,"timezone":"Europe/Mariehamn","modification_date":"0001-01-01T00:00:00Z"},{"geoname_id":643436,"name":"Överö ön","ascii_name":"Overo on","alternate_names":"Overo,Overo on,Ovro,Ovrö,Vro,Överö,Överö ön","latitude":"60.10914","longitude":"20.49998","feature_class":"T","feature_code":"ISL","country_code":"AX","admin1_code":"01","dem":-9999,"timezone":"Europe/Mariehamn","modification_date":"0001-01-01T00:00:00Z"},{"geoname_id":643446,"name":"Överboda","ascii_name":"OEverboda","alternate_names":"Everboda,Overboda,Överboda","latitude":"59.93333","longitude":"20.9","feature_class":"P","feature_code":"PPL","country_code":"AX","admin1_code":"213","admin2_code":"318","dem":8,"timezone":"Europe/Mariehamn","modification_date":"0001-01-01T00:00:00Z"},{"geoname_id":643529,"name":"Östra Simskäla","ascii_name":"Ostra Simskala","alternate_names":"Ostra Simskala,Ostra Simskela,Östra Simskela,Östra Simskäla","latitude":"60.35257","longitude":"20.3596","feature_class":"T","feature_code":"ISLX","country_code":"AX","admin1_code":"01","dem":-9999,"timezone":"Europe/Mariehamn","modification_date":"0001-01-01T00:00:00Z"},{"geoname_id":643531,"name":"Östra Långskär","ascii_name":"OEstra Langskaer","alternate_names":"","latitude":"60.02379","longitude":"20.90904","feature_class":"T","feature_code":"ISL","country_code":"AX","admin1_code":"318","dem":-9999,"timezone":"Europe/Mariehamn","modification_date":"0001-01-01T00:00:00Z"},{"geoname_id":643532,"name":"Östra Krokskär","ascii_name":"Ostra Krokskar","alternate_names":"","latitude":"60.23333","longitude":"20.25","feature_class":"T","feature_code":"ISL","country_code":"AX","admin1_code":"01","dem":-9999,"timezone":"Europe/Mariehamn","modification_date":"0001-01-01T00:00:00Z"},{"geoname_id":643533,"name":"Östra Halvan","ascii_name":"Ostra Halvan","alternate_names":"Ostra Halvan,Ytter Halvan,Östra Halvan","latitude":"59.83333","longitude":"20.58333","feature_class":"T","feature_code":"RKS","country_code":"AX","admin1_code":"01","dem":-9999,"timezone":"Europe/Mariehamn","modification_date":"0001-01-01T00:00:00Z"},{"geoname_id":643534,"name":"Östra Skäret","ascii_name":"Ostra Skaret","alternate_names":"Osterskar,Ostra Gloskar,Ostra Skaret,Österskär,Östra Gloskär,Östra Skäret","latitude":"60.34004","longitude":"20.40312","feature_class":"T","feature_code":"ISLX","country_code":"AX","admin1_code":"01","dem":3,"timezone":"Europe/Mariehamn","modification_date":"0001-01-01T00:00:00Z"},{"geoname_id":643544,"name":"Östra Skäret","ascii_name":"Ostra Skaret","alternate_names":"Osterskar,Ostra Skaret,Österskär,Östra Skäret","latitude":"60.35654","longitude":"20.49489","feature_class":"T","feature_code":"ISL","country_code":"AX","admin1_code":"01","dem":-9999,"timezone":"Europe/Mariehamn","modification_date":"0001-01-01T00:00:00Z"},{"geoname_id":643553,"name":"Österholmen","ascii_name":"OEsterholmen","alternate_names":"Osterholm,Österholm","latitude":"60.2133","longitude":"20.41289","feature_class":"T","feature_code":"ISL","country_code":"AX","admin1_code":"941","dem":-9999,"timezone":"Europe/Mariehamn","modification_date":"0001-01-01T00:00:00Z"},{"geoname_id":643562,"name":"Österbygge","ascii_name":"OEsterbygge","alternate_names":"Osterbuggo,Ostrabyugo,Österbuggo,Östrabyugo","latitude":"59.93726","longitude":"20.98013","feature_class":"P","feature_code":"PPL","country_code":"AX","cc2":"FI","admin1_code":"213","admin2_code":"318","dem":10,"timezone":"Europe/Mariehamn","modification_date":"0001-01-01T00:00:00Z"},{"geoname_id":643596,"name":"Örskär","ascii_name":"Orskar","alternate_names":"","latitude":"60.04806","longitude":"20.86158","feature_class":"T","feature_code":"ISL","country_code":"AX","admin1_code":"01","dem":-9999,"timezone":"Europe/Mariehamn","modification_date":"0001-01-01T00:00:00Z"},{"geoname_id":643597,"name":"Örskär","ascii_name":"Orskar","alternate_names":"","latitude":"59.9912","longitude":"21.02732","feature_class":"T","feature_code":"ISL","country_code":"AX","dem":5,"timezone":"Europe/Mariehamn","modification_date":"0001-01-01T00:00:00Z"},{"geoname_id":643605,"name":"Orrdals Klint","ascii_name":"Orrdals Klint","alternate_names":"Orrdals Klint,Orrdalsklint","latitude":"60.33261","longitude":"20.11925","feature_class":"T","feature_code":"HLL","country_code":"AX","admin1_code":"212","admin2_code":"736","elevation":129,"dem":62,"timezone":"Europe/Mariehamn","modification_date":"0001-01-01T00:00:00Z"},{"geoname_id":643613,"name":"Örkläpparna","ascii_name":"Orklapparna","alternate_names":"Oren,Orklapparna,Orn,Ornklappar,Ören,Örkläpparna,Örn,Örnkläppar","latitude":"59.76667","longitude":"21.03333","feature_class":"T","feature_code":"RKS","country_code":"AX","admin1_code":"01","dem":-9999,"timezone":"Europe/Mariehamn","modification_date":"0001-01-01T00:00:00Z"},{"geoname_id":643621,"name":"Ormö","ascii_name":"Ormoe","alternate_names":"","latitude":"60.42757","longitude":"20.87837","feature_class":"T","feature_code":"ISL","country_code":"AX","admin1_code":"035","dem":-9999,"timezone":"Europe/Mariehamn","modification_date":"0001-01-01T00:00:00Z"},{"geoname_id":643717,"name":"Önningbyfjärden","ascii_name":"Onningbyfjarden","alternate_names":"Onningbyfjarden,Onningebyfjard,Onningebyfjarden,Önningbyfjärden,Önningebyfjärd,Önningebyfjärden","latitude":"60.1","longitude":"20.05","feature_class":"H","feature_code":"BAY","country_code":"AX","admin1_code":"01","dem":-9999,"timezone":"Europe/Mariehamn","modification_date":"0001-01-01T00:00:00Z"},{"geoname_id":643718,"name":"Önningby","ascii_name":"OEnningby","alternate_names":"Oningeby,Onningeby,Öningeby,Önningeby","latitude":"60.11754","longitude":"20.00782","feature_class":"P","feature_code":"PPL","country_code":"AX","cc2":"FI","admin1_code":"212","admin2_code":"170","dem":12,"timezone":"Europe/Mariehamn","modification_date":"0001-01-01T00:00:00Z"},{"geoname_id":643871,"name":"Örlandet","ascii_name":"OErlandet","alternate_names":"Oland,Orlandet,Öland,Örlandet","latitude":"60.01442","longitude":"20.9641","feature_class":"T","feature_code":"ISL","country_code":"AX","cc2":"FI","admin1_code":"318","dem":-9999,"timezone":"Europe/Mariehamn","modification_date":"0001-01-01T00:00:00Z"},{"geoname_id":644064,"name":"Finholma ön","ascii_name":"Finholma on","alternate_names":"Finholm,Finholma on,Finholma ön,Oholm,On,Öholm,Ön","latitude":"60.07042","longitude":"20.51935","feature_class":"T","feature_code":"ISLX","country_code":"AX","admin1_code":"01","dem":-9999,"timezone":"Europe/Mariehamn","modification_date":"0001-01-01T00:00:00Z"},{"geoname_id":644331,"name":"Notören","ascii_name":"Notoren","alternate_names":"Notor,Notoren,Notör,Notören,Nötören,Vidskar,Vidskär","latitude":"60.1373","longitude":"20.80258","feature_class":"T","feature_code":"ISL","country_code":"AX","admin1_code":"01","dem":-9999,"timezone":"Europe/Mariehamn","modification_date":"0001-01-01T00:00:00Z"},{"geoname_id":644334,"name":"Nötö","ascii_name":"Noetoe","alternate_names":"","latitude":"60.09232","longitude":"20.47836","feature_class":"P","feature_code":"PPLL","country_code":"AX","admin1_code":"213","admin2_code":"062","dem":-9999,"timezone":"Europe/Mariehamn","modification_date":"0001-01-01T00:00:00Z"},{"geoname_id":644336,"name":"Nötö","ascii_name":"Noto","alternate_names":"Noto,Nötö","latitude":"60.40363","longitude":"21.01844","feature_class":"T","feature_code":"ISL","country_code":"AX","admin1_code":"01","dem":-9999,"timezone":"Europe/Mariehamn","modification_date":"0001-01-01T00:00:00Z"},{"geoname_id":644337,"name":"Nottö","ascii_name":"Notto","alternate_names":"Noto,Notto,Nottö,Nötö","latitude":"60.29854","longitude":"21.01341","feature_class":"T","feature_code":"ISL","country_code":"AX","admin1_code":"01","dem":-9999,"timezone":"Europe/Mariehamn","modification_date":"0001-01-01T00:00:00Z"},{"geoname_id":644338,"name":"Nötö","ascii_name":"Noto","alternate_names":"Neto,Netö,Noto,Nötö","latitude":"60.08333","longitude":"20.48333","feature_class":"T","feature_code":"ISL","country_code":"AX","admin1_code":"01","dem":-9999,"timezone":"Europe/Mariehamn","modification_date":"0001-01-01T00:00:00Z"},{"geoname_id":644362,"name":"Norrskäret","ascii_name":"Norrskaeret","alternate_names":"Norrskaer,Norrskaeret,Norrskär,Norrskäret","latitude":"60.53735","longitude":"20.20827","feature_class":"T","feature_code":"ISL","country_code":"AX","cc2":"FI","admin1_code":"01","dem":-9999,"timezone":"Europe/Mariehamn","modification_date":"0001-01-01T00:00:00Z"},{"geoname_id":644365,"name":"Norrörarna","ascii_name":"Norroerarna","alternate_names":"Norroarna,Norröarna,Porsskarsorar,Porsskarsörar","latitude":"60.47379","longitude":"20.78163","feature_class":"T","feature_code":"ISLS","country_code":"AX","cc2":"FI","admin1_code":"035","dem":-9999,"timezone":"Europe/Mariehamn","modification_date":"0001-01-01T00:00:00Z"},{"geoname_id":644366,"name":"Norrön","ascii_name":"Norroen","alternate_names":"Norren,Norro,Norrö","latitude":"60.55226","longitude":"21.0468","feature_class":"T","feature_code":"ISL","country_code":"AX","cc2":"FI","admin1_code":"035","dem":2,"timezone":"Europe/Mariehamn","modification_date":"0001-01-01T00:00:00Z"},{"geoname_id":644370,"name":"Norrlandet","ascii_name":"Norrlandet","alternate_names":"Gunnarsten,Norrlandet","latitude":"60.23028","longitude":"21.00898","feature_class":"T","feature_code":"ISL","country_code":"AX","admin1_code":"01","dem":-9999,"timezone":"Europe/Mariehamn","modification_date":"0001-01-01T00:00:00Z"},{"geoname_id":644376,"name":"Norrklobben","ascii_name":"Norrklobben","alternate_names":"Norrklobb,Norrklobben,Norrklubb","latitude":"60.49147","longitude":"20.85993","feature_class":"T","feature_code":"ISL","country_code":"AX","admin1_code":"01","dem":-9999,"timezone":"Europe/Helsinki","modification_date":"0001-01-01T00:00:00Z"},{"geoname_id":644378,"name":"Norrhära","ascii_name":"Norrhara","alternate_names":"Norrhara,Norrharun,Norrhära","latitude":"59.96667","longitude":"21.15","feature_class":"T","feature_code":"ISL","country_code":"AX","admin1_code":"01","dem":-9999,"timezone":"Europe/Mariehamn","modification_date":"0001-01-01T00:00:00Z"},{"geoname_id":644381,"name":"Norra Granö","ascii_name":"Norra Granoe","alternate_names":"Norr-Grano,Norr-Granö","latitude":"60.27202","longitude":"20.31045","feature_class":"T","feature_code":"ISL","country_code":"AX","cc2":"FI","admin1_code":"941","dem":-9999,"timezone":"Europe/Mariehamn","modification_date":"0001-01-01T00:00:00Z"},{"geoname_id":644394,"name":"Norrby","ascii_name":"Norrby","alternate_names":"","latitude":"60.07862","longitude":"20.08215","feature_class":"P","feature_code":"PPL","country_code":"AX","admin1_code":"212","admin2_code":"417","dem":10,"timezone":"Europe/Mariehamn","modification_date":"0001-01-01T00:00:00Z"},{"geoname_id":644396,"name":"Norrboda","ascii_name":"Norrboda","alternate_names":"","latitude":"60.14138","longitude":"20.26729","feature_class":"P","feature_code":"PPL","country_code":"AX","admin1_code":"212","admin2_code":"438","dem":24,"timezone":"Europe/Mariehamn","modification_date":"0001-01-01T00:00:00Z"},{"geoname_id":644401,"name":"Inre Pungö","ascii_name":"Inre Pungoe","alternate_names":"Norra Pungo,Norra Pungö","latitude":"59.98893","longitude":"19.99873","feature_class":"T","feature_code":"ISL","country_code":"AX","cc2":"FI","admin1_code":"417","dem":15,"timezone":"Europe/Mariehamn","modification_date":"0001-01-01T00:00:00Z"},{"geoname_id":644410,"name":"Norra Askskär","ascii_name":"Norra Askskaer","alternate_names":"","latitude":"59.9444","longitude":"20.1788","feature_class":"T","feature_code":"ISL","country_code":"AX","admin1_code":"062","dem":11,"timezone":"Europe/Mariehamn","modification_date":"0001-01-01T00:00:00Z"},{"geoname_id":645005,"name":"Näversholma","ascii_name":"Naversholma","alternate_names":"Naverholm,Naversholm,Naversholma,Novorholm,Näverholm,Näversholm,Näversholma,Növörholm","latitude":"60.02527","longitude":"20.46738","feature_class":"T","feature_code":"ISL","country_code":"AX","admin1_code":"01","dem":11,"timezone":"Europe/Mariehamn","modification_date":"0001-01-01T00:00:00Z"},{"geoname_id":645040,"name":"Nasskär","ascii_name":"Nasskar","alternate_names":"","latitude":"59.91667","longitude":"21.08333","feature_class":"T","feature_code":"ISL","country_code":"AX","admin1_code":"01","dem":-9999,"timezone":"Europe/Mariehamn","modification_date":"0001-01-01T00:00:00Z"},{"geoname_id":645049,"name":"Näsgård","ascii_name":"Naesgard","alternate_names":"","latitude":"59.98484","longitude":"20.19976","feature_class":"S","feature_code":"HSE","country_code":"AX","admin1_code":"212","admin2_code":"417","dem":-9999,"timezone":"Europe/Mariehamn","modification_date":"0001-01-01T00:00:00Z"},{"geoname_id":645810,"name":"Mosshaga","ascii_name":"Mosshaga","alternate_names":"Mashaga,Moshaga,Mosshaga,Måshaga","latitude":"60.16445","longitude":"20.59112","feature_class":"T","feature_code":"ISL","country_code":"AX","admin1_code":"213","admin2_code":"766","dem":11,"timezone":"Europe/Mariehamn","modification_date":"0001-01-01T00:00:00Z"},{"geoname_id":645811,"name":"Mosshaga","ascii_name":"Mosshaga","alternate_names":"","latitude":"60.16667","longitude":"20.6","feature_class":"S","feature_code":"HSE","country_code":"AX","admin1_code":"213","admin2_code":"766","dem":-9999,"timezone":"Europe/Mariehamn","modification_date":"0001-01-01T00:00:00Z"},{"geoname_id":645823,"name":"Gadden","ascii_name":"Gadden","alternate_names":"Gadden,Morskarsgaddar,Morskarsgaddarna,Mörskärsgaddar,Mörskärsgaddarna","latitude":"59.75","longitude":"21.18333","feature_class":"T","feature_code":"RKS","country_code":"AX","admin1_code":"01","dem":-9999,"timezone":"Europe/Mariehamn","modification_date":"0001-01-01T00:00:00Z"},{"geoname_id":645824,"name":"Mörskärs Fjärden","ascii_name":"Morskars Fjarden","alternate_names":"Morskars Fjarden,Morskarsfjarden,Moskarsfjard,Mörskärs Fjärden,Mörskärsfjärden,Möskärsfjärd","latitude":"59.75","longitude":"21.08333","feature_class":"H","feature_code":"SD","country_code":"AX","admin1_code":"01","dem":-9999,"timezone":"Europe/Mariehamn","modification_date":"0001-01-01T00:00:00Z"},{"geoname_id":645825,"name":"Mörskär","ascii_name":"Moerskaer","alternate_names":"","latitude":"59.78333","longitude":"21.16667","feature_class":"S","feature_code":"HSE","country_code":"AX","admin1_code":"213","admin2_code":"318","dem":-9999,"timezone":"Europe/Mariehamn","modification_date":"0001-01-01T00:00:00Z"},{"geoname_id":645939,"name":"Mjoö","ascii_name":"Mjooe","alternate_names":"Miuo,Miuö,Mjuo,Mjuö","latitude":"59.90811","longitude":"20.96027","feature_class":"T","feature_code":"ISL","country_code":"AX","cc2":"FI","admin1_code":"318","dem":18,"timezone":"Europe/Mariehamn","modification_date":"0001-01-01T00:00:00Z"},{"geoname_id":645942,"name":"Mjölkön","ascii_name":"Mjolkon","alternate_names":"Bano-o,Bänö-ö,Mjolko,Mjolkon,Mjölkö,Mjölkön","latitude":"60.08333","longitude":"20.58333","feature_class":"T","feature_code":"ISL","country_code":"AX","admin1_code":"01","dem":-9999,"timezone":"Europe/Mariehamn","modification_date":"0001-01-01T00:00:00Z"},{"geoname_id":646084,"name":"Mickelsö","ascii_name":"Mickelsoe","alternate_names":"","latitude":"60.18869","longitude":"20.26855","feature_class":"T","feature_code":"ISL","country_code":"AX","admin1_code":"941","dem":6,"timezone":"Europe/Mariehamn","modification_date":"0001-01-01T00:00:00Z"},{"geoname_id":646225,"name":"Mellanklobb","ascii_name":"Mellanklobb","alternate_names":"Melankubb,Mellanklobb,Mellanklubb","latitude":"60.24552","longitude":"20.55251","feature_class":"T","feature_code":"ISL","country_code":"AX","admin1_code":"941","dem":-9999,"timezone":"Europe/Mariehamn","modification_date":"0001-01-01T00:00:00Z"},{"geoname_id":646226,"name":"Mellanhalvan","ascii_name":"Mellanhalvan","alternate_names":"Mellan Halvan,Mellanhalvan","latitude":"59.88333","longitude":"20.6","feature_class":"T","feature_code":"RKS","country_code":"AX","admin1_code":"01","dem":-9999,"timezone":"Europe/Mariehamn","modification_date":"0001-01-01T00:00:00Z"},{"geoname_id":646227,"name":"Mellanhalder","ascii_name":"Mellanhalder","alternate_names":"Mellandhalder,Mellanhalde,Mellanhalder,Mellanhallet,Mellanhållet","latitude":"59.78333","longitude":"20.65","feature_class":"T","feature_code":"RK","country_code":"AX","admin1_code":"01","dem":-9999,"timezone":"Europe/Mariehamn","modification_date":"0001-01-01T00:00:00Z"},{"geoname_id":646558,"name":"Manskär","ascii_name":"Manskaer","alternate_names":"Marskar,Marskär","latitude":"60.36145","longitude":"20.54603","feature_class":"T","feature_code":"ISL","country_code":"AX","admin1_code":"295","dem":-9999,"timezone":"Europe/Mariehamn","modification_date":"0001-01-01T00:00:00Z"},{"geoname_id":646808,"name":"Mångstäkta","ascii_name":"Mangstaekta","alternate_names":"Mangstekta,Mångstekta","latitude":"60.25323","longitude":"20.22937","feature_class":"P","feature_code":"PPL","country_code":"AX","cc2":"FI","admin1_code":"212","admin2_code":"771","dem":37,"timezone":"Europe/Mariehamn","modification_date":"0001-01-01T00:00:00Z"},{"geoname_id":646829,"name":"Maltholm","ascii_name":"Maltholm","alternate_names":"Maltholm,Mattholm,Notholm,Nötholm","latitude":"60.28333","longitude":"21.06667","feature_class":"T","feature_code":"ISL","country_code":"AX","admin1_code":"01","dem":1,"timezone":"Europe/Helsinki","modification_date":"0001-01-01T00:00:00Z"},{"geoname_id":646830,"name":"Målsör","ascii_name":"Malsor","alternate_names":"","latitude":"59.85","longitude":"20.75","feature_class":"T","feature_code":"RKS","country_code":"AX","admin1_code":"01","dem":-9999,"timezone":"Europe/Mariehamn","modification_date":"0001-01-01T00:00:00Z"},{"geoname_id":646835,"name":"Mälör","ascii_name":"Malor","alternate_names":"","latitude":"59.85","longitude":"20.68333","feature_class":"T","feature_code":"RKS","country_code":"AX","admin1_code":"01","dem":-9999,"timezone":"Europe/Mariehamn","modification_date":"0001-01-01T00:00:00Z"},{"geoname_id":647107,"name":"Magskär","ascii_name":"Magskaer","alternate_names":"Majskar,Majskär","latitude":"60.26603","longitude":"20.52713","feature_class":"T","feature_code":"ISL","country_code":"AX","admin1_code":"941","dem":-9999,"timezone":"Europe/Mariehamn","modification_date":"0001-01-01T00:00:00Z"},{"geoname_id":647453,"name":"Lumpo","ascii_name":"Lumpo","alternate_names":"Lumho,Lumpo,Lumpoby","latitude":"60.14625","longitude":"20.23791","feature_class":"P","feature_code":"PPLL","country_code":"AX","admin1_code":"212","admin2_code":"438","dem":12,"timezone":"Europe/Mariehamn","modification_date":"0001-01-01T00:00:00Z"},{"geoname_id":647455,"name":"Lumparland","ascii_name":"Lumparland","alternate_names":"Lumparland,Lumparlanti","latitude":"60.11695","longitude":"20.25819","feature_class":"P","feature_code":"PPLA2","country_code":"AX","cc2":"FI","admin1_code":"212","admin2_code":"438","population":335,"dem":9,"timezone":"Europe/Mariehamn","modification_date":"0001-01-01T00:00:00Z"},{"geoname_id":647456,"name":"Lumparland","ascii_name":"Lumparland","alternate_names":"Lumpar,Lumparland","latitude":"60.10812","longitude":"20.25052","feature_class":"T","feature_code":"ISL","country_code":"AX","admin1_code":"01","dem":10,"timezone":"Europe/Mariehamn","modification_date":"0001-01-01T00:00:00Z"},{"geoname_id":647457,"name":"Lumparland","ascii_name":"Lumparland","alternate_names":"Lumparland,Lumparlandi vald,Lumparlandin Kunta,Lumparlands Kommun,lun pa er lan,Лумпарланд,倫帕爾蘭","latitude":"60.1156","longitude":"20.26217","feature_class":"A","feature_code":"ADM2","country_code":"AX","admin1_code":"212","admin2_code":"438","population":394,"dem":10,"timezone":"Europe/Mariehamn","modification_date":"0001-01-01T00:00:00Z"},{"geoname_id":647458,"name":"Lumparn","ascii_name":"Lumparn","alternate_names":"Lumpar Fiard,Lumpar Fiärd,Lumparen,Lumpari,Lumparinselka,Lumparinselkä,Lumparn","latitude":"60.15","longitude":"20.13333","feature_class":"H","feature_code":"BAY","country_code":"AX","admin1_code":"01","dem":-9999,"timezone":"Europe/Mariehamn","modification_date":"0001-01-01T00:00:00Z"},{"geoname_id":647459,"name":"Lumparby","ascii_name":"Lumparby","alternate_names":"","latitude":"60.12181","longitude":"20.24433","feature_class":"P","feature_code":"PPL","country_code":"AX","admin1_code":"212","admin2_code":"438","dem":6,"timezone":"Europe/Mariehamn","modification_date":"0001-01-01T00:00:00Z"},{"geoname_id":647479,"name":"Luckuskär","ascii_name":"Luckuskar","alternate_names":"Lekuskar,Lekuskär,Luckuskar,Luckuskär,Lukuskar,Lukuskär","latitude":"59.81667","longitude":"21.18333","feature_class":"T","feature_code":"ISL","country_code":"AX","admin1_code":"01","dem":-9999,"timezone":"Europe/Mariehamn","modification_date":"0001-01-01T00:00:00Z"},{"geoname_id":647566,"name":"Lövö","ascii_name":"Loevoe","alternate_names":"Lefo,Lovo,Lëfö,Lövö","latitude":"60.26147","longitude":"20.37175","feature_class":"P","feature_code":"PPLL","country_code":"AX","admin1_code":"213","admin2_code":"941","dem":9,"timezone":"Europe/Mariehamn","modification_date":"0001-01-01T00:00:00Z"},{"geoname_id":647672,"name":"Lönnbådan","ascii_name":"Lonnbadan","alternate_names":"Lonnbadan,Lonngrund,Lönnbådan,Lönngrund","latitude":"60.45","longitude":"20","feature_class":"T","feature_code":"RK","country_code":"AX","admin1_code":"01","dem":-9999,"timezone":"Europe/Mariehamn","modification_date":"0001-01-01T00:00:00Z"},{"geoname_id":647788,"name":"Ljungskär","ascii_name":"Ljungskaer","alternate_names":"Ljungskaren,Ljungskären","latitude":"60.34389","longitude":"20.87686","feature_class":"T","feature_code":"ISL","country_code":"AX","cc2":"FI","admin1_code":"295","dem":-9999,"timezone":"Europe/Mariehamn","modification_date":"0001-01-01T00:00:00Z"},{"geoname_id":647789,"name":"Ljungskär","ascii_name":"Ljungskaer","alternate_names":"","latitude":"60.27319","longitude":"20.95464","feature_class":"T","feature_code":"ISL","country_code":"AX","admin1_code":"035","dem":-9999,"timezone":"Europe/Mariehamn","modification_date":"0001-01-01T00:00:00Z"},{"geoname_id":647792,"name":"Ljungö","ascii_name":"Ljungoe","alternate_names":"Yungo,Yungö","latitude":"60.09196","longitude":"20.69888","feature_class":"T","feature_code":"ISL","country_code":"AX","cc2":"FI","admin1_code":"766","dem":-9999,"timezone":"Europe/Mariehamn","modification_date":"0001-01-01T00:00:00Z"},{"geoname_id":647823,"name":"Listersby","ascii_name":"Listersby","alternate_names":"Listerby,Listersby","latitude":"60.23025","longitude":"20.37969","feature_class":"P","feature_code":"PPL","country_code":"AX","admin1_code":"213","admin2_code":"941","dem":13,"timezone":"Europe/Mariehamn","modification_date":"0001-01-01T00:00:00Z"},{"geoname_id":647831,"name":"Liskär","ascii_name":"Liskaer","alternate_names":"Diskar,Diskär","latitude":"60.1687","longitude":"20.55192","feature_class":"T","feature_code":"ISL","country_code":"AX","cc2":"FI","admin1_code":"766","dem":-9999,"timezone":"Europe/Mariehamn","modification_date":"0001-01-01T00:00:00Z"},{"geoname_id":647925,"name":"Lindö","ascii_name":"Lindoe","alternate_names":"","latitude":"59.8876","longitude":"20.91067","feature_class":"T","feature_code":"ISL","country_code":"AX","admin1_code":"318","dem":14,"timezone":"Europe/Mariehamn","modification_date":"0001-01-01T00:00:00Z"},{"geoname_id":647957,"name":"Lillappo","ascii_name":"Lillappo","alternate_names":"Lill Lappo,Lillappo","latitude":"60.36585","longitude":"20.8686","feature_class":"T","feature_code":"ISL","country_code":"AX","admin1_code":"295","dem":1,"timezone":"Europe/Mariehamn","modification_date":"0001-01-01T00:00:00Z"},{"geoname_id":647958,"name":"Lillklyndan","ascii_name":"Lillklyndan","alternate_names":"Lill Klyandan,Lillklinda,Lillklynda","latitude":"60.58522","longitude":"21.08098","feature_class":"T","feature_code":"ISL","country_code":"AX","cc2":"FI","admin1_code":"035","dem":-9999,"timezone":"Europe/Mariehamn","modification_date":"0001-01-01T00:00:00Z"},{"geoname_id":647969,"name":"Lilleböle","ascii_name":"Lilleboele","alternate_names":"","latitude":"59.93333","longitude":"20.88333","feature_class":"P","feature_code":"PPL","country_code":"AX","admin1_code":"213","admin2_code":"318","dem":22,"timezone":"Europe/Mariehamn","modification_date":"0001-01-01T00:00:00Z"},{"geoname_id":648354,"name":"Lemströms Kanal","ascii_name":"Lemstroms Kanal","alternate_names":"Lemstrom Canal,Lemstromin Kanava,Lemstroms Kanal,Lemström Canal,Lemströmin Kanava,Lemströms Kanal","latitude":"60.1","longitude":"20.01667","feature_class":"H","feature_code":"CNL","country_code":"AX","admin1_code":"01","dem":1,"timezone":"Europe/Mariehamn","modification_date":"0001-01-01T00:00:00Z"},{"geoname_id":648382,"name":"Lemland","ascii_name":"Lemland","alternate_names":"Lemlanti","latitude":"60.07178","longitude":"20.08472","feature_class":"P","feature_code":"PPLA2","country_code":"AX","admin1_code":"212","admin2_code":"417","population":1829,"dem":10,"timezone":"Europe/Mariehamn","modification_date":"0001-01-01T00:00:00Z"},{"geoname_id":648384,"name":"Lemland","ascii_name":"Lemland","alternate_names":"Lemland,Lemlandi vald,Lemlandin Kunta,Lemlands Kommun,lai mu lan,Лемланд,萊姆蘭","latitude":"60.08333","longitude":"20.08333","feature_class":"A","feature_code":"ADM2","country_code":"AX","admin1_code":"212","admin2_code":"417","population":1814,"dem":10,"timezone":"Europe/Mariehamn","modification_date":"0001-01-01T00:00:00Z"},{"geoname_id":648594,"name":"Legoskär","ascii_name":"Legoskaer","alternate_names":"","latitude":"60.18598","longitude":"20.57147","feature_class":"T","feature_code":"ISL","country_code":"AX","admin1_code":"766","dem":-9999,"timezone":"Europe/Mariehamn","modification_date":"0001-01-01T00:00:00Z"},{"geoname_id":648595,"name":"Ledsund","ascii_name":"Ledsund","alternate_names":"","latitude":"59.96502","longitude":"20.17303","feature_class":"H","feature_code":"CHNM","country_code":"AX","admin1_code":"01","dem":-9999,"timezone":"Europe/Mariehamn","modification_date":"0001-01-01T00:00:00Z"},{"geoname_id":648596,"name":"Ledsöra","ascii_name":"Ledsoera","alternate_names":"Ledsara,Ledsåra,Lesora,Lesöra","latitude":"60.28994","longitude":"20.50742","feature_class":"T","feature_code":"ISL","country_code":"AX","admin1_code":"941","dem":-9999,"timezone":"Europe/Mariehamn","modification_date":"0001-01-01T00:00:00Z"},{"geoname_id":648597,"name":"Ledskär","ascii_name":"Ledskaer","alternate_names":"Bedskar,Bedskär,Ledskar,Ledskär","latitude":"59.96255","longitude":"20.16977","feature_class":"T","feature_code":"ISL","country_code":"AX","admin1_code":"417","dem":10,"timezone":"Europe/Mariehamn","modification_date":"0001-01-01T00:00:00Z"},{"geoname_id":648860,"name":"Österöfjärden","ascii_name":"OEsteroefjaerden","alternate_names":"","latitude":"60.33333","longitude":"20.83333","feature_class":"H","feature_code":"STRT","country_code":"AX","admin1_code":"01","dem":-9999,"timezone":"Europe/Mariehamn","modification_date":"0001-01-01T00:00:00Z"},{"geoname_id":648868,"name":"Lappo","ascii_name":"Lappo","alternate_names":"Lappaby,Lappo,Lappoby-Aland,Lappoby-Åland","latitude":"60.31626","longitude":"20.98488","feature_class":"P","feature_code":"PPL","country_code":"AX","admin1_code":"213","admin2_code":"035","dem":2,"timezone":"Europe/Mariehamn","modification_date":"0001-01-01T00:00:00Z"},{"geoname_id":648869,"name":"Lappo","ascii_name":"Lappo","alternate_names":"Lappo","latitude":"60.31227","longitude":"20.97885","feature_class":"T","feature_code":"ISL","country_code":"AX","admin1_code":"01","dem":9,"timezone":"Europe/Mariehamn","modification_date":"0001-01-01T00:00:00Z"},{"geoname_id":648995,"name":"Lanto Grunden","ascii_name":"Lanto Grunden","alternate_names":"Lanto Grunden,Lantogrunden,Lantoorarna,Lantoörarna,Lantögrunden","latitude":"60.41884","longitude":"20.75758","feature_class":"T","feature_code":"ISL","country_code":"AX","admin1_code":"01","dem":-9999,"timezone":"Europe/Mariehamn","modification_date":"0001-01-01T00:00:00Z"},{"geoname_id":648996,"name":"Lanto","ascii_name":"Lanto","alternate_names":"Landto,Landtö","latitude":"60.40324","longitude":"20.76547","feature_class":"T","feature_code":"ISL","country_code":"AX","cc2":"FI","admin1_code":"295","dem":-9999,"timezone":"Europe/Mariehamn","modification_date":"0001-01-01T00:00:00Z"},{"geoname_id":649001,"name":"Länsmansgrund","ascii_name":"Laensmansgrund","alternate_names":"","latitude":"60.44314","longitude":"20.16283","feature_class":"T","feature_code":"ISL","country_code":"AX","admin1_code":"736","dem":-9999,"timezone":"Europe/Mariehamn","modification_date":"0001-01-01T00:00:00Z"},{"geoname_id":649058,"name":"Långskär","ascii_name":"Langskar","alternate_names":"","latitude":"60.15139","longitude":"20.50929","feature_class":"T","feature_code":"ISL","country_code":"AX","admin1_code":"01","dem":-9999,"timezone":"Europe/Mariehamn","modification_date":"0001-01-01T00:00:00Z"},{"geoname_id":649059,"name":"Långskär","ascii_name":"Langskar","alternate_names":"","latitude":"60.01889","longitude":"20.88428","feature_class":"T","feature_code":"ISL","country_code":"AX","admin1_code":"01","dem":-9999,"timezone":"Europe/Mariehamn","modification_date":"0001-01-01T00:00:00Z"},{"geoname_id":649060,"name":"Långskär","ascii_name":"Langskar","alternate_names":"Langskar,Longskar,Longskär,Långskär","latitude":"60.0386","longitude":"20.77589","feature_class":"T","feature_code":"ISL","country_code":"AX","admin1_code":"01","dem":-9999,"timezone":"Europe/Mariehamn","modification_date":"0001-01-01T00:00:00Z"},{"geoname_id":649061,"name":"Långskär","ascii_name":"Langskar","alternate_names":"","latitude":"60.00306","longitude":"20.22787","feature_class":"T","feature_code":"ISL","country_code":"AX","admin1_code":"01","dem":1,"timezone":"Europe/Mariehamn","modification_date":"0001-01-01T00:00:00Z"},{"geoname_id":649064,"name":"Långskär","ascii_name":"Langskar","alternate_names":"","latitude":"59.86667","longitude":"21.05","feature_class":"T","feature_code":"ISL","country_code":"AX","admin1_code":"01","dem":-9999,"timezone":"Europe/Mariehamn","modification_date":"0001-01-01T00:00:00Z"},{"geoname_id":649069,"name":"Längskär","ascii_name":"Langskar","alternate_names":"Langskar,Längskär,Yttre Langskar,Yttre Längskär","latitude":"59.8","longitude":"21.01667","feature_class":"T","feature_code":"ISL","country_code":"AX","admin1_code":"01","dem":-9999,"timezone":"Europe/Mariehamn","modification_date":"0001-01-01T00:00:00Z"},{"geoname_id":649070,"name":"Långsjö","ascii_name":"Langsjo","alternate_names":"","latitude":"60.31463","longitude":"20.08916","feature_class":"H","feature_code":"LK","country_code":"AX","admin1_code":"01","dem":20,"timezone":"Europe/Mariehamn","modification_date":"0001-01-01T00:00:00Z"},{"geoname_id":649075,"name":"Långrasket","ascii_name":"Langrasket","alternate_names":"Langrask,Långrask","latitude":"60.33208","longitude":"20.53474","feature_class":"T","feature_code":"ISL","country_code":"AX","cc2":"FI","admin1_code":"941","dem":-9999,"timezone":"Europe/Mariehamn","modification_date":"0001-01-01T00:00:00Z"},{"geoname_id":649085,"name":"Långören","ascii_name":"Langoeren","alternate_names":"Langor,Langorn,Långör,Långörn","latitude":"59.93376","longitude":"20.13373","feature_class":"T","feature_code":"ISL","country_code":"AX","admin1_code":"417","dem":11,"timezone":"Europe/Mariehamn","modification_date":"0001-01-01T00:00:00Z"},{"geoname_id":649091,"name":"Långö","ascii_name":"Lango","alternate_names":"Lango,Långö","latitude":"60.49966","longitude":"21.04597","feature_class":"T","feature_code":"ISLX","country_code":"AX","admin1_code":"01","dem":-9999,"timezone":"Europe/Helsinki","modification_date":"0001-01-01T00:00:00Z"},{"geoname_id":649094,"name":"Langö","ascii_name":"Langoe","alternate_names":"","latitude":"60.33258","longitude":"20.42788","feature_class":"T","feature_code":"ISL","country_code":"AX","admin1_code":"941","dem":-9999,"timezone":"Europe/Mariehamn","modification_date":"0001-01-01T00:00:00Z"},{"geoname_id":649099,"name":"Långnäs","ascii_name":"Langnas","alternate_names":"Langnas,Langnas Udd,Langnasudd,Langnasudde,Lumpar Point,Långnäs,Långnäs Udd,Långnäsudd,Långnäsudde","latitude":"60.11502","longitude":"20.29341","feature_class":"T","feature_code":"CAPE","country_code":"AX","admin1_code":"212","admin2_code":"438","dem":1,"timezone":"Europe/Mariehamn","modification_date":"0001-01-01T00:00:00Z"},{"geoname_id":649109,"name":"Långholm","ascii_name":"Langholm","alternate_names":"","latitude":"60.32674","longitude":"20.28265","feature_class":"T","feature_code":"ISL","country_code":"AX","admin1_code":"941","dem":-9999,"timezone":"Europe/Mariehamn","modification_date":"0001-01-01T00:00:00Z"},{"geoname_id":649111,"name":"Långholm","ascii_name":"Langholm","alternate_names":"Longholm","latitude":"60.11014","longitude":"20.53889","feature_class":"T","feature_code":"ISL","country_code":"AX","cc2":"FI","admin1_code":"062","dem":-9999,"timezone":"Europe/Mariehamn","modification_date":"0001-01-01T00:00:00Z"},{"geoname_id":649124,"name":"Långbrok","ascii_name":"Langbrok","alternate_names":"Longbrok","latitude":"60.25167","longitude":"20.99164","feature_class":"T","feature_code":"ISL","country_code":"AX","cc2":"FI","admin1_code":"035","dem":-9999,"timezone":"Europe/Mariehamn","modification_date":"0001-01-01T00:00:00Z"},{"geoname_id":649125,"name":"Långbergsöda","ascii_name":"Langbergsoeda","alternate_names":"","latitude":"60.30058","longitude":"20.13326","feature_class":"P","feature_code":"PPL","country_code":"AX","admin1_code":"212","admin2_code":"736","dem":40,"timezone":"Europe/Mariehamn","modification_date":"0001-01-01T00:00:00Z"},{"geoname_id":649190,"name":"Lammskär","ascii_name":"Lammskar","alternate_names":"Lammskar,Lammskär,Lamskar,Lamskär","latitude":"59.98525","longitude":"20.54344","feature_class":"T","feature_code":"ISL","country_code":"AX","admin1_code":"01","dem":6,"timezone":"Europe/Mariehamn","modification_date":"0001-01-01T00:00:00Z"},{"geoname_id":649480,"name":"Låga skärgården","ascii_name":"Laga skaergarden","alternate_names":"Laga Skargarden,Låga Skärgården","latitude":"60.48669","longitude":"20.28983","feature_class":"T","feature_code":"ISLS","country_code":"AX","cc2":"FI","admin1_code":"736","dem":-9999,"timezone":"Europe/Mariehamn","modification_date":"0001-01-01T00:00:00Z"},{"geoname_id":649481,"name":"De låga","ascii_name":"De laga","alternate_names":"Lagharor,Lagharun,Lågharun,Låghäror,Mellande Laga,Mellande Låga,Ostra Laga,Östra Låga","latitude":"60.43407","longitude":"20.66821","feature_class":"T","feature_code":"ISL","country_code":"AX","cc2":"FI","admin1_code":"295","dem":-9999,"timezone":"Europe/Mariehamn","modification_date":"0001-01-01T00:00:00Z"},{"geoname_id":649629,"name":"Kyrksundet","ascii_name":"Kyrksundet","alternate_names":"","latitude":"60.01462","longitude":"20.43558","feature_class":"H","feature_code":"STRT","country_code":"AX","admin1_code":"01","dem":-9999,"timezone":"Europe/Mariehamn","modification_date":"0001-01-01T00:00:00Z"},{"geoname_id":649634,"name":"Kyrkogårdsö","ascii_name":"Kyrkogardsoe","alternate_names":"","latitude":"60.03649","longitude":"20.82372","feature_class":"P","feature_code":"PPL","country_code":"AX","admin1_code":"213","admin2_code":"318","dem":-9999,"timezone":"Europe/Mariehamn","modification_date":"0001-01-01T00:00:00Z"},{"geoname_id":649635,"name":"Kyrkogårdsö","ascii_name":"Kyrkogardsoe","alternate_names":"Cherkgorson,Cherkgorsön,Koerkobordso,Koerkobördsö","latitude":"60.03754","longitude":"20.82305","feature_class":"T","feature_code":"ISL","country_code":"AX","cc2":"FI","admin1_code":"318","dem":-9999,"timezone":"Europe/Mariehamn","modification_date":"0001-01-01T00:00:00Z"},